{
  "version": 0.6,
  "generator": "Overpass API",
  "osm3s": {
    "timestamp_osm_base": "2017-05-14T20:03:27Z",
    "timestamp_areas_base": "2017-05-14T18:44:28Z",
    "copyright": "The data included in this document is from www.openstreetmap.org. The data is made available under ODbL."
  },
  "elements": [
    {
      "type": "node",
      "id": 10797872,
      "lat": 51.4579729,
      "lon": -0.149242,
      "tags": {
        "created_by": "Potlatch 0.10c",
        "historic": "The Bandstand",
        "tourism": "attraction"
      }
    },
    {
      "type": "node",
      "id": 16960853,
      "lat": 51.4099116,
      "lon": -0.3361791,
      "tags": {
        "amenity": "fountain",
        "artwork_type": "statue",
        "name": "Diana Fountain",
        "tourism": "artwork",
        "wikidata": "Q5271155",
        "wikipedia": "en:Diana Fountain, Bushy Park"
      }
    },
    {
      "type": "node",
      "id": 19085022,
      "lat": 51.6696524,
      "lon": -0.0682804,
      "tags": {
        "name": "Forty Hall Museum",
        "tourism": "museum"
      }
    },
    {
      "type": "node",
      "id": 21632322,
      "lat": 51.3821745,
      "lon": -0.1560632,
      "tags": {
        "flickr": "1008213420",
        "name": "BedZED",
        "tourism": "attraction",
        "website": "http://www.bioregional.com/programme_projects/ecohous_prog/bedzed/bedzed_hpg.htm",
        "wikipedia": "en:BedZED"
      }
    },
    {
      "type": "node",
      "id": 25507019,
      "lat": 51.5050612,
      "lon": -0.1249613,
      "tags": {
        "artwork_type": "statue",
        "historic": "memorial",
        "name": "The Gurkha Soldier",
        "tourism": "artwork",
        "wikidata": "Q18574747",
        "wikipedia": "en:Gurkha Memorial, London"
      }
    },
    {
      "type": "node",
      "id": 25508657,
      "lat": 51.5220347,
      "lon": -0.1227555,
      "tags": {
        "artwork_type": "statue",
        "description": "maybe a queen",
        "tourism": "artwork",
        "wheelchair": "yes"
      }
    },
    {
      "type": "node",
      "id": 25508658,
      "lat": 51.5217357,
      "lon": -0.1224809,
      "tags": {
        "artwork_type": "statue",
        "description": "mother and baby",
        "tourism": "artwork",
        "wheelchair": "yes"
      }
    },
    {
      "type": "node",
      "id": 25524252,
      "lat": 51.4983179,
      "lon": -0.1360484,
      "tags": {
        "historic": "building",
        "name": "Blewcoat School",
        "tourism": "attraction",
        "wikipedia": "en:Blewcoat School"
      }
    },
    {
      "type": "node",
      "id": 25607231,
      "lat": 51.506273,
      "lon": -0.1317571,
      "tags": {
        "artwork_type": "statue",
        "height": "41.99",
        "min_height": "37.9",
        "monument": "statue",
        "name": "Frederick, Duke of York",
        "start_date": "1834",
        "tourism": "artwork",
        "wikipedia": "en:Prince Frederick, Duke of York and Albany"
      }
    },
    {
      "type": "node",
      "id": 25831022,
      "lat": 51.5400398,
      "lon": -0.143193,
      "tags": {
        "created_by": "YahooApplet 1.0",
        "name": "Camden / Buck Street Market",
        "tourism": "attraction",
        "wheelchair": "yes"
      }
    },
    {
      "type": "node",
      "id": 25947730,
      "lat": 51.4975442,
      "lon": -0.4558534,
      "tags": {
        "created_by": "JOSM",
        "name": "Novotel",
        "tourism": "hotel"
      }
    },
    {
      "type": "node",
      "id": 26197001,
      "lat": 51.4994407,
      "lon": -0.4542096,
      "tags": {
        "name": "Crowne Plaza",
        "tourism": "hotel"
      }
    },
    {
      "type": "node",
      "id": 26559743,
      "lat": 51.3952047,
      "lon": -0.1452455,
      "tags": {
        "tourism": "attraction"
      }
    },
    {
      "type": "node",
      "id": 26915020,
      "lat": 51.4988226,
      "lon": -0.1376005,
      "tags": {
        "created_by": "JOSM",
        "name": "Crowne Plaza London - St. James",
        "source": "knowledge",
        "tourism": "hotel"
      }
    },
    {
      "type": "node",
      "id": 26915114,
      "lat": 51.5065936,
      "lon": -0.0734841,
      "tags": {
        "addr:city": "London",
        "addr:housename": "The Tower Hotel",
        "addr:postcode": "E1W 1LD",
        "addr:street": "Saint Katherine's Way",
        "name": "The Tower - Guoman Hotels",
        "source": "knowledge",
        "tourism": "hotel",
        "website": "http://www.guoman.com/hotels/united_kingdom/london/the_tower/index.html",
        "wheelchair": "limited"
      }
    },
    {
      "type": "node",
      "id": 27084532,
      "lat": 51.5055114,
      "lon": -0.0222461,
      "tags": {
        "artist_name": "James Horrobin & SOM",
        "artwork_type": "sculpture",
        "name": "Cabot Square Railings",
        "start_date": "1992",
        "tourism": "artwork",
        "website": "http://www.canarywharf.com/visitus/Public--Art/Visual-Arts-at-Canary-Wharf/"
      }
    },
    {
      "type": "node",
      "id": 27408513,
      "lat": 51.5108862,
      "lon": -0.307107,
      "tags": {
        "name": "Pitzhanger Manor House and Gallery",
        "tourism": "museum",
        "website": "http://www.pitzhanger.org.uk/"
      }
    },
    {
      "type": "node",
      "id": 29269886,
      "lat": 51.5228224,
      "lon": -0.1547768,
      "tags": {
        "addr:city": "London",
        "addr:housenumber": "8-10",
        "addr:street": "Marylebone Road",
        "email": "guest.experience@madame-tussauds.com",
        "fhrs:confidence_management": "10",
        "fhrs:hygiene": "5",
        "fhrs:id": "428012",
        "fhrs:local_authority_id": "01066/4000/0/000",
        "fhrs:rating": "4",
        "fhrs:rating_date": "2012-09-20",
        "fhrs:structural": "5",
        "name": "Madame Tussauds",
        "opening_hours": "Mo-Fr 09:30-17:30; Sa-Su 09:00-18:00",
        "phone": "+44 871 894 3000",
        "postal_code": "NW1 5LR",
        "source:addr": "FSA Food Hygiene Ratings Database",
        "source:postcode": "FSA Food Hygiene Ratings Database",
        "toilets:wheelchair": "yes",
        "tourism": "museum",
        "website": "https://www.madametussauds.co.uk/london",
        "wheelchair": "yes",
        "wheelchair:description": "Bis auf die Bustour am Ende kann man sich alles ansehen. Und wenn man Hilfe braucht um sich mit einer Figur fotografieren zu lassen sind die Mitarbeiter zur Stelle.",
        "wikipedia": "en:Madame Tussauds London"
      }
    },
    {
      "type": "node",
      "id": 29372721,
      "lat": 51.4170299,
      "lon": 0.0372264,
      "tags": {
        "created_by": "JOSM",
        "name": "Sundridge Park hotel and conference Ctr",
        "tourism": "hotel"
      }
    },
    {
      "type": "node",
      "id": 31314241,
      "lat": 51.5146111,
      "lon": -0.1566998,
      "tags": {
        "addr:city": "London",
        "addr:postcode": "W1H 7BY",
        "addr:street": "4 Bryanston Street, Marble Arch",
        "contact:facebook": "http://www.facebook.com/DoubleTreeByHiltonMarbleArch",
        "contact:google_plus": "https://plus.google.com/+DoubleTreebyHiltonHotelLondonMarbleArch/about?hl=en-GB",
        "fax": "+44 20 74872759",
        "internet_access": "yes",
        "name": "DoubleTree by Hilton Hotel London - Marble Arch",
        "operator": "Hilton Worldwide",
        "phone": "+44 20 79352361",
        "rooms": "121",
        "smoking": "no",
        "stars": "4",
        "tourism": "hotel",
        "website": "http://doubletree3.hilton.com/en/hotels/united-kingdom/doubletree-by-hilton-hotel-london-marble-arch-LONMADI/index.html?WT.mc_id=zELWAKN0EMEA1DT2DMH3LocalSearch4DGGenericx6LONMADI",
        "wheelchair": "yes"
      }
    },
    {
      "type": "node",
      "id": 31452361,
      "lat": 51.4697472,
      "lon": -0.0700773,
      "tags": {
        "addr:housenumber": "21",
        "addr:postcode": "SE15 4QL",
        "addr:street": "Blenheim Grove",
        "description": "The Sassoon Gallery is behind Bar Story, and shows are open from 12-6pm.",
        "name": "The Sassoon Gallery",
        "tourism": "gallery",
        "website": "http://www.thesassoongallery.co.uk"
      }
    },
    {
      "type": "node",
      "id": 35131367,
      "lat": 51.4880339,
      "lon": 0.1730956,
      "tags": {
        "information": "guidepost",
        "name": "Green Chain",
        "tourism": "information"
      }
    },
    {
      "type": "node",
      "id": 37124475,
      "lat": 51.36511,
      "lon": -0.1668055,
      "tags": {
        "description": "The water tower is a very unusual early 18th century garden building. As the name suggests, this contained a water-powered pump which supplied water to Carshalton House and the fountains in its garden.",
        "flickr": "3667834465",
        "name": "Carshalton Water Tower",
        "tourism": "museum",
        "website": "http://www.carshaltonwatertower.co.uk"
      }
    },
    {
      "type": "node",
      "id": 39764474,
      "lat": 51.4257256,
      "lon": -0.2202552,
      "tags": {
        "addr:housenumber": "55",
        "addr:postcode": "SW19 5BA",
        "addr:street": "High Street",
        "amenity": "pub",
        "brewery": "Charles Wells",
        "fhrs:id": "530992",
        "name": "The Rose and Crown",
        "opening_hours": "Mo-Sa 08:00-23:00; Su 12:00-22:30",
        "operator": "Young & Co",
        "operator:wikidata": "Q8057802",
        "toilets:wheelchair": "yes",
        "tourism": "hotel",
        "website": "http://www.roseandcrownwimbledon.co.uk/",
        "wheelchair": "limited"
      }
    },
    {
      "type": "node",
      "id": 47801969,
      "lat": 51.525688,
      "lon": -0.077428,
      "tags": {
        "addr:city": "London",
        "addr:country": "GB",
        "addr:housenumber": "100",
        "addr:postcode": "E1 6JQ",
        "addr:street": "Shoreditch High Street",
        "ele": "13",
        "internet_access": "wlan",
        "name": "Ace Hotel London Shoreditch",
        "operator": "Ace Hotel",
        "phone": "0044 2076139800",
        "tourism": "hotel",
        "website": "http://www.acehotel.com/london",
        "wheelchair": "yes"
      }
    },
    {
      "type": "node",
      "id": 52716195,
      "lat": 51.5578921,
      "lon": 0.2450981,
      "tags": {
        "man_made": "windmill",
        "name": "Upminster Windmill",
        "tourism": "attraction"
      }
    },
    {
      "type": "node",
      "id": 59931333,
      "lat": 51.4919364,
      "lon": -0.1419446,
      "tags": {
        "name": "easyHotel Victoria",
        "operator": "easyHotel",
        "tourism": "hotel"
      }
    },
    {
      "type": "node",
      "id": 60240570,
      "lat": 51.5944531,
      "lon": -0.1291317,
      "tags": {
        "height": "65.5",
        "man_made": "tower",
        "name": "Alexandra Palace transmitter",
        "tourism": "Alexandra Palace",
        "tower:type": "communication"
      }
    },
    {
      "type": "node",
      "id": 60882162,
      "lat": 51.478214,
      "lon": -0.3733906,
      "tags": {
        "addr:city": "honslow",
        "addr:housenumber": "366",
        "addr:postcode": "TW5 0BD",
        "addr:street": "Great West Road",
        "contact:facebook": "https://www.facebook.com/pages/Masterrobert/325307186819",
        "contact:google_plus": "https://plus.google.com/112496271975696673295",
        "contact:phone": "+ 44 (0) 20 8570 6261",
        "contact:twitter": "https://twitter.com/MasterrobertUK",
        "contact:website": "http://www.masterrobert.co.uk",
        "description": "Master Robert Hotel is one of the nearest hotels near Heathrow airport to offer corporate business travellers with large rooms, conference venues, park and fly packages.",
        "name": "The Master Robert",
        "tourism": "hotel"
      }
    },
    {
      "type": "node",
      "id": 90386296,
      "lat": 51.4872647,
      "lon": -0.3832483,
      "tags": {
        "name": "Thorncliffe Hotel",
        "note": "Used as temporary housing by council",
        "tourism": "hotel"
      }
    },
    {
      "type": "node",
      "id": 130157092,
      "lat": 51.4177105,
      "lon": -0.1790682,
      "tags": {
        "addr:housenumber": "200",
        "addr:postcode": "SW19 2BH",
        "addr:street": "High Street Colliers Wood",
        "fhrs:id": "813106",
        "name": "Holiday Inn Express",
        "tourism": "hotel"
      }
    },
    {
      "type": "node",
      "id": 130223583,
      "lat": 51.4139796,
      "lon": -0.1801989,
      "tags": {
        "addr:housenumber": "27",
        "addr:postcode": "SW19 2RF",
        "addr:street": "Chapter Way",
        "fhrs:id": "232174",
        "name": "Premier Inn",
        "tourism": "hotel"
      }
    },
    {
      "type": "node",
      "id": 169349332,
      "lat": 51.4989628,
      "lon": -0.1343668,
      "tags": {
        "addr:city": "London",
        "addr:postcode": "SW1H 0QW",
        "addr:street": "Caxton Street",
        "name": "St. Ermin's Hotel",
        "operator": "Autograph Collection, Marriot",
        "stars": "4",
        "tourism": "hotel",
        "website": "http://www.sterminshotel.co.uk",
        "wheelchair": "yes"
      }
    },
    {
      "type": "node",
      "id": 206181000,
      "lat": 51.5282915,
      "lon": -0.1729235,
      "tags": {
        "source": "gps+mapnoter",
        "tourism": "information"
      }
    },
    {
      "type": "node",
      "id": 207146910,
      "lat": 51.4705612,
      "lon": -0.2936713,
      "tags": {
        "tourism": "information"
      }
    },
    {
      "type": "node",
      "id": 207147104,
      "lat": 51.47776,
      "lon": -0.290963,
      "tags": {
        "tourism": "information"
      }
    },
    {
      "type": "node",
      "id": 207147246,
      "lat": 51.4842841,
      "lon": -0.2912776,
      "tags": {
        "created_by": "Potlatch 0.6a",
        "tourism": "information"
      }
    },
    {
      "type": "node",
      "id": 207183384,
      "lat": 51.4773583,
      "lon": -0.3026928,
      "tags": {
        "name": "Mount Pleasant",
        "tourism": "viewpoint"
      }
    },
    {
      "type": "node",
      "id": 207226220,
      "lat": 51.4822386,
      "lon": -0.2981695,
      "tags": {
        "created_by": "Potlatch 0.6a",
        "tourism": "information"
      }
    },
    {
      "type": "node",
      "id": 207284862,
      "lat": 51.4802678,
      "lon": -0.2900247,
      "tags": {
        "historic": "folly",
        "name": "Temple of Aeolus",
        "tourism": "viewpoint",
        "wheelchair": "yes"
      }
    },
    {
      "type": "node",
      "id": 213627484,
      "lat": 51.5943327,
      "lon": -0.3548284,
      "tags": {
        "name": "Headstone Manor",
        "postal_code": "HA2 6PX",
        "tourism": "museum"
      }
    },
    {
      "type": "node",
      "id": 241858478,
      "lat": 51.4877587,
      "lon": 0.0314783,
      "tags": {
        "amenity": "pub",
        "name": "The Antigallican",
        "tourism": "hotel"
      }
    },
    {
      "type": "node",
      "id": 242936414,
      "lat": 51.4993493,
      "lon": -0.314134,
      "tags": {
        "created_by": "Potlatch 0.6c",
        "name": "Northfields",
        "railway": "subway_entrance",
        "tourism": "Tube Station"
      }
    },
    {
      "type": "node",
      "id": 243762168,
      "lat": 51.4764848,
      "lon": -0.0046116,
      "tags": {
        "tourism": "viewpoint"
      }
    },
    {
      "type": "node",
      "id": 243769867,
      "lat": 51.4775927,
      "lon": -0.0102912,
      "tags": {
        "addr:postcode": "SE10 8RS",
        "name": "The Greenwich Gallery",
        "source": "website",
        "tourism": "gallery",
        "website": "http://www.thegreenwichgallery.com/"
      }
    },
    {
      "type": "node",
      "id": 244065165,
      "lat": 51.4015924,
      "lon": -0.3008193,
      "tags": {
        "created_by": "Potlatch 0.6c",
        "name": "The Antoinette",
        "tourism": "hotel"
      }
    },
    {
      "type": "node",
      "id": 248617998,
      "lat": 51.5010897,
      "lon": -0.0404578,
      "tags": {
        "name": "Stave Hill",
        "tourism": "viewpoint"
      }
    },
    {
      "type": "node",
      "id": 249287514,
      "lat": 51.4959585,
      "lon": -0.1257633,
      "tags": {
        "created_by": "Potlatch 0.8a",
        "tourism": "hotel",
        "wheelchair": "no"
      }
    },
    {
      "type": "node",
      "id": 249513555,
      "lat": 51.4744324,
      "lon": -0.2925382,
      "tags": {
        "name": "Marianne North Gallery",
        "tourism": "gallery"
      }
    },
    {
      "type": "node",
      "id": 252602371,
      "lat": 51.5063397,
      "lon": -0.0883162,
      "tags": {
        "created_by": "Potlatch 0.9c",
        "layer": "-1",
        "name": "London Bridge Experience",
        "opening_hours": "Mo-Fr 10:30-17:00; Sa-Su 10:00-18:00",
        "phone": "02074036333",
        "tourism": "attraction"
      }
    },
    {
      "type": "node",
      "id": 254025974,
      "lat": 51.5297557,
      "lon": -0.1224147,
      "tags": {
        "addr:housenumber": "2-4",
        "addr:postcode": "WC1H 8AT",
        "addr:street": "Crestfield Street",
        "fhrs:id": "426365",
        "fixme": "inaccurately lcoated over church",
        "name": "Crestfield Hotel",
        "name:zh": "伦敦克莱斯特菲尔德酒店",
        "source": "Walking papers",
        "source:addr": "FHRS Open Data",
        "tourism": "hotel"
      }
    },
    {
      "type": "node",
      "id": 254025975,
      "lat": 51.5302618,
      "lon": -0.1229357,
      "tags": {
        "addr:city": "London",
        "addr:housenumber": "9-11",
        "addr:postcode": "NW1 2SA",
        "addr:street": "Euston Road",
        "fhrs:id": "516239",
        "name": "Kings Cross Inn Hotel",
        "tourism": "hotel"
      }
    },
    {
      "type": "node",
      "id": 255282628,
      "lat": 51.4944034,
      "lon": -0.1417547,
      "tags": {
        "name": "Victoria Park Plaza",
        "tourism": "hotel"
      }
    },
    {
      "type": "node",
      "id": 255467667,
      "lat": 51.5086225,
      "lon": -0.1759282,
      "tags": {
        "historic": "icon",
        "memorial:type": "statue",
        "name": "Peter Pan Statue",
        "tourism": "attraction",
        "wikipedia": "en:Peter Pan"
      }
    },
    {
      "type": "node",
      "id": 255550893,
      "lat": 51.5067108,
      "lon": -0.1783253,
      "tags": {
        "addr:city": "London",
        "addr:street": "Kensington Gardens",
        "historic": "monument",
        "name": "Physical Energy",
        "tourism": "artwork",
        "website": "https://www.royalparks.org.uk/parks/kensington-gardens/things-to-see-and-do/memorials,-fountains-and-statues/physical-energy-statue",
        "wheelchair": "yes"
      }
    },
    {
      "type": "node",
      "id": 261633241,
      "lat": 51.3617505,
      "lon": -0.1966293,
      "tags": {
        "name": "Holiday Inn",
        "tourism": "hotel"
      }
    },
    {
      "type": "node",
      "id": 261700004,
      "lat": 51.4736073,
      "lon": -0.1155806,
      "tags": {
        "created_by": "JOSM",
        "name": "The Type Museum",
        "tourism": "museum",
        "wikipedia": "en:Type Museum"
      }
    },
    {
      "type": "node",
      "id": 262289990,
      "lat": 51.5293038,
      "lon": -0.0062931,
      "tags": {
        "tourism": "viewpoint"
      }
    },
    {
      "type": "node",
      "id": 263506131,
      "lat": 51.492744,
      "lon": -0.2508727,
      "tags": {
        "name": "Chiswick Hotel",
        "tourism": "hotel"
      }
    },
    {
      "type": "node",
      "id": 264136836,
      "lat": 51.5588574,
      "lon": 0.042432,
      "tags": {
        "name": "Courtney Hotel",
        "tourism": "hotel"
      }
    },
    {
      "type": "node",
      "id": 265662292,
      "lat": 51.486375,
      "lon": -0.0843308,
      "tags": {
        "amenity": "pub",
        "name": "The Hour Glass",
        "tourism": "hotel"
      }
    },
    {
      "type": "node",
      "id": 266843474,
      "lat": 51.5020079,
      "lon": -0.1195889,
      "tags": {
        "name": "London Aquarium",
        "tourism": "attraction",
        "wheelchair": "yes"
      }
    },
    {
      "type": "node",
      "id": 266976402,
      "lat": 51.5400945,
      "lon": -0.3731878,
      "tags": {
        "man_made": "peak",
        "tourism": "viewpoint"
      }
    },
    {
      "type": "node",
      "id": 267820878,
      "lat": 51.5395363,
      "lon": -0.0003863,
      "tags": {
        "artwork_type": "sculpture",
        "description": "This is an artwork situated on a traffic island.",
        "name": "Railway Tree",
        "tourism": "artwork"
      }
    },
    {
      "type": "node",
      "id": 268039103,
      "lat": 51.596843,
      "lon": -0.1951207,
      "tags": {
        "name": "Stephens Collection",
        "tourism": "museum"
      }
    },
    {
      "type": "node",
      "id": 268988407,
      "lat": 51.489006,
      "lon": -0.3667031,
      "tags": {
        "artist_name": "Ray Smith",
        "artwork_type": "sculpture",
        "name": "The Ramblers",
        "start_date": "2001",
        "tourism": "artwork"
      }
    },
    {
      "type": "node",
      "id": 269138169,
      "lat": 51.5361775,
      "lon": 0.0075822,
      "tags": {
        "name": "The King's Head (now a hotel)",
        "tourism": "hotel"
      }
    },
    {
      "type": "node",
      "id": 269139632,
      "lat": 51.3568421,
      "lon": -0.1832416,
      "tags": {
        "name": "Albion Hotel",
        "tourism": "hotel"
      }
    },
    {
      "type": "node",
      "id": 269236138,
      "lat": 51.3553025,
      "lon": -0.1706494,
      "tags": {
        "name": "Little Holland House",
        "tourism": "attraction"
      }
    },
    {
      "type": "node",
      "id": 270420470,
      "lat": 51.5044583,
      "lon": -0.0331578,
      "tags": {
        "addr:city": "London",
        "addr:housenumber": "265",
        "addr:postcode": "SE16 5HW",
        "addr:street": "Rotherhithe Street",
        "contact:facebook": "https://www.facebook.com/DoubleTreeDockLDN",
        "contact:google_plus": "https://plus.google.com/+DoubletreebyHiltonLondonDocklandsRiverside/about?hl=en",
        "contact:phone": "+44 20 7231 1001",
        "internet_access": "wlan",
        "name": "DoubleTree by Hilton Hotel London - Docklands Riverside",
        "operator": "Hilton Worldwide",
        "rooms": "378",
        "smoking": "no",
        "stars": "4",
        "tourism": "hotel",
        "website": "http://doubletree3.hilton.com/en/hotels/united-kingdom/doubletree-by-hilton-hotel-london-docklands-riverside-LONNDDI/index.html?WT.mc_id=zELWAKN0EMEA1DT2DMH3LocalSearch4DGGenericx6LONNDDI",
        "wikipedia": "en:DoubleTree by Hilton Hotel London - Docklands Riverside"
      }
    },
    {
      "type": "node",
      "id": 270420473,
      "lat": 51.506231,
      "lon": -0.0372858,
      "tags": {
        "name": "Pumphouse Educational Museum",
        "tourism": "museum"
      }
    },
    {
      "type": "node",
      "id": 271811859,
      "lat": 51.5321106,
      "lon": -0.1094659,
      "tags": {
        "addr:city": "London",
        "addr:country": "GB",
        "addr:housenumber": "60",
        "addr:postcode": "N1 9LA",
        "addr:street": "Pentonville Road",
        "contact:facebook": "https://www.facebook.com/dtlondonislington",
        "contact:google_plus": "https://plus.google.com/+DoubleTreebyHiltonLondonIslington",
        "contact:twitter": "https://twitter.com/DTIslington",
        "email": "information@dtislington.com",
        "name": "DoubleTree by Hilton Hotel London - Islington",
        "operator": "Hilton",
        "phone": "+44-20-7282 5500",
        "smoking": "no",
        "tourism": "hotel",
        "website": "http://doubletree3.hilton.com/en/hotels/united-kingdom/doubletree-by-hilton-hotel-london-islington-LONLIDI/index.html?WT.mc_id=zELWAKN0EMEA1DT2DMH3LocalSearch4DGGenericx6LONLIDI",
        "wheelchair": "yes"
      }
    },
    {
      "type": "node",
      "id": 271812284,
      "lat": 51.5198739,
      "lon": -0.1432064,
      "tags": {
        "name": "Astor Court",
        "tourism": "hotel"
      }
    },
    {
      "type": "node",
      "id": 273210322,
      "lat": 51.490333,
      "lon": -0.138557,
      "tags": {
        "addr:city": "London",
        "addr:housenumber": "68-76",
        "addr:street": "Belgrave Road",
        "name": "Sidney Hotel",
        "payment:american_express": "yes",
        "tourism": "hotel",
        "wheelchair": "no"
      }
    },
    {
      "type": "node",
      "id": 274343593,
      "lat": 51.5118489,
      "lon": -0.0111672,
      "tags": {
        "name": "George IV",
        "tourism": "hotel"
      }
    },
    {
      "type": "node",
      "id": 274870175,
      "lat": 51.526491,
      "lon": 0.1937294,
      "tags": {
        "name": "Odd sculpture",
        "tourism": "artwork"
      }
    },
    {
      "type": "node",
      "id": 275399020,
      "lat": 51.49055,
      "lon": -0.138318,
      "tags": {
        "addr:city": "London",
        "addr:housenumber": "55",
        "addr:street": "Belgrave Road",
        "fhrs:confidence_management": "5",
        "fhrs:hygiene": "5",
        "fhrs:id": "410811",
        "fhrs:local_authority_id": "00012/0055/0/000",
        "fhrs:rating": "4",
        "fhrs:rating_date": "2012-07-24",
        "fhrs:structural": "10",
        "name": "Huttons Hotel",
        "postal_code": "SW1V 2BB",
        "source:addr": "FSA Food Hygiene Ratings Database",
        "source:postcode": "FSA Food Hygiene Ratings Database",
        "tourism": "hotel",
        "wheelchair": "no"
      }
    },
    {
      "type": "node",
      "id": 276070664,
      "lat": 51.490678,
      "lon": -0.138529,
      "tags": {
        "addr:housenumber": "51",
        "name": "Victor Hotel",
        "tourism": "hotel",
        "wheelchair": "no"
      }
    },
    {
      "type": "node",
      "id": 276070737,
      "lat": 51.490747,
      "lon": -0.138673,
      "tags": {
        "addr:city": "London",
        "addr:housenumber": "49",
        "addr:street": "Belgrave Road",
        "fhrs:confidence_management": "10",
        "fhrs:hygiene": "5",
        "fhrs:id": "410808",
        "fhrs:local_authority_id": "00012/0047/0/000",
        "fhrs:rating": "4",
        "fhrs:rating_date": "2012-03-22",
        "fhrs:structural": "0",
        "name": "Luna Simone Hotel",
        "postal_code": "SW1V 2BB",
        "source:addr": "FSA Food Hygiene Ratings Database",
        "source:postcode": "FSA Food Hygiene Ratings Database",
        "tourism": "hotel",
        "wheelchair": "no"
      }
    },
    {
      "type": "node",
      "id": 276070789,
      "lat": 51.490787,
      "lon": -0.138809,
      "tags": {
        "addr:city": "London",
        "addr:housenumber": "45",
        "addr:street": "Belgrave Road",
        "fhrs:confidence_management": "10",
        "fhrs:hygiene": "5",
        "fhrs:id": "410807",
        "fhrs:local_authority_id": "00012/0045/0/000",
        "fhrs:rating": "4",
        "fhrs:rating_date": "2012-10-25",
        "fhrs:structural": "5",
        "name": "Lidos Hotel",
        "postal_code": "SW1V 2BB",
        "source:addr": "FSA Food Hygiene Ratings Database",
        "source:postcode": "FSA Food Hygiene Ratings Database",
        "tourism": "hotel",
        "wheelchair": "no"
      }
    },
    {
      "type": "node",
      "id": 276070998,
      "lat": 51.4908254,
      "lon": -0.1388947,
      "tags": {
        "name": "Pimlico Inn",
        "tourism": "hotel"
      }
    },
    {
      "type": "node",
      "id": 276316309,
      "lat": 51.6032893,
      "lon": 0.0108502,
      "tags": {
        "created_by": "Potlatch 0.10f",
        "name": "The County Hotel",
        "tourism": "hotel"
      }
    },
    {
      "type": "node",
      "id": 276757177,
      "lat": 51.4925292,
      "lon": -0.1453529,
      "tags": {
        "created_by": "Potlatch 0.9c",
        "name": "Ivy House Hotel",
        "tourism": "hotel"
      }
    },
    {
      "type": "node",
      "id": 276757352,
      "lat": 51.4924811,
      "lon": -0.145413,
      "tags": {
        "created_by": "Potlatch 0.9c",
        "name": "Holly House Hotel",
        "tourism": "hotel"
      }
    },
    {
      "type": "node",
      "id": 276757512,
      "lat": 51.492246,
      "lon": -0.1457306,
      "tags": {
        "created_by": "Potlatch 0.9c",
        "name": "Cedar Guest House",
        "tourism": "hotel"
      }
    },
    {
      "type": "node",
      "id": 276757538,
      "lat": 51.4921926,
      "lon": -0.1457907,
      "tags": {
        "created_by": "Potlatch 0.9c",
        "name": "Alexandar House Hotel",
        "tourism": "hotel"
      }
    },
    {
      "type": "node",
      "id": 276758018,
      "lat": 51.4919628,
      "lon": -0.146031,
      "tags": {
        "created_by": "Potlatch 0.9c",
        "name": "Comfort Inn",
        "tourism": "hotel"
      }
    },
    {
      "type": "node",
      "id": 276758179,
      "lat": 51.4930476,
      "lon": -0.1443144,
      "tags": {
        "addr:city": "London",
        "addr:housenumber": "18-24",
        "addr:street": "Belgrave Road",
        "created_by": "Potlatch 0.9c",
        "fhrs:confidence_management": "5",
        "fhrs:hygiene": "5",
        "fhrs:id": "410797",
        "fhrs:local_authority_id": "00012/0018/0/000",
        "fhrs:rating": "5",
        "fhrs:rating_date": "2012-04-17",
        "fhrs:structural": "5",
        "name": "Comfort Inn Victoria",
        "postal_code": "SW1V 1QF",
        "source:addr": "FSA Food Hygiene Ratings Database",
        "source:postcode": "FSA Food Hygiene Ratings Database",
        "tourism": "hotel"
      }
    },
    {
      "type": "node",
      "id": 276758495,
      "lat": 51.4921231,
      "lon": -0.145825,
      "tags": {
        "created_by": "Potlatch 0.9c",
        "name": "Annexe Hotel",
        "tourism": "hotel"
      }
    },
    {
      "type": "node",
      "id": 276759615,
      "lat": 51.491831,
      "lon": -0.1417585,
      "tags": {
        "name": "Dover Hotel",
        "tourism": "hotel"
      }
    },
    {
      "type": "node",
      "id": 276759626,
      "lat": 51.4918652,
      "lon": -0.1418351,
      "tags": {
        "name": "Calvados Hotel",
        "tourism": "hotel"
      }
    },
    {
      "type": "node",
      "id": 276761159,
      "lat": 51.4908678,
      "lon": -0.1389894,
      "tags": {
        "addr:city": "London",
        "addr:housenumber": "37-41",
        "addr:street": "Belgrave Road",
        "fhrs:confidence_management": "5",
        "fhrs:hygiene": "5",
        "fhrs:id": "410803",
        "fhrs:local_authority_id": "00012/0037/0/000",
        "fhrs:rating": "5",
        "fhrs:rating_date": "2012-04-20",
        "fhrs:structural": "0",
        "name": "Central House Hotel",
        "postal_code": "SW1V 2BB",
        "source:addr": "FSA Food Hygiene Ratings Database",
        "source:postcode": "FSA Food Hygiene Ratings Database",
        "tourism": "hotel"
      }
    },
    {
      "type": "node",
      "id": 277271786,
      "lat": 51.5683173,
      "lon": 0.0085275,
      "tags": {
        "description": "Mosaics of scenes from Alfred Hitchcock's movies.",
        "name": "Hitchcock Mosaics",
        "tourism": "artwork"
      }
    },
    {
      "type": "node",
      "id": 277625421,
      "lat": 51.490223,
      "lon": -0.138658,
      "tags": {
        "addr:city": "London",
        "addr:housenumber": "31",
        "addr:street": "Charlwood Street",
        "fhrs:confidence_management": "10",
        "fhrs:hygiene": "5",
        "fhrs:id": "412125",
        "fhrs:local_authority_id": "00671/0031/0/000",
        "fhrs:rating": "4",
        "fhrs:rating_date": "2012-04-05",
        "fhrs:structural": "5",
        "name": "Romanos Hotel",
        "postal_code": "SW1V 2DU",
        "source:addr": "FSA Food Hygiene Ratings Database",
        "source:postcode": "FSA Food Hygiene Ratings Database",
        "tourism": "hotel",
        "wheelchair": "no"
      }
    },
    {
      "type": "node",
      "id": 277625824,
      "lat": 51.4901228,
      "lon": -0.1387816,
      "tags": {
        "name": "Melita Hotel",
        "tourism": "hotel"
      }
    },
    {
      "type": "node",
      "id": 281610742,
      "lat": 51.4532116,
      "lon": -0.1238363,
      "tags": {
        "addr:postcode": "SW2 5EU",
        "man_made": "windmill",
        "name": "The Brixton Windmill",
        "tourism": "attraction",
        "website": "http://brixtonwindmill.org/",
        "wikipedia": "en:Ashby's Mill"
      }
    },
    {
      "type": "node",
      "id": 290868432,
      "lat": 51.4948774,
      "lon": 0.0706064,
      "tags": {
        "artist_name": "Peter Burke",
        "artwork_type": "statue",
        "man_made": "sculpture",
        "name": "Assembly",
        "tourism": "artwork"
      }
    },
    {
      "type": "node",
      "id": 291719605,
      "lat": 51.5291745,
      "lon": -0.1369244,
      "tags": {
        "name": "Thistle Euston",
        "tourism": "hotel"
      }
    },
    {
      "type": "node",
      "id": 291719656,
      "lat": 51.5278716,
      "lon": -0.1354309,
      "tags": {
        "internet_access": "wlan",
        "name": "IBIS Euston",
        "tourism": "hotel"
      }
    },
    {
      "type": "node",
      "id": 293221901,
      "lat": 51.447849,
      "lon": 0.1593837,
      "tags": {
        "name": "Hall Place and Gardens",
        "tourism": "attraction"
      }
    },
    {
      "type": "node",
      "id": 293388175,
      "lat": 51.526545,
      "lon": -0.1574728,
      "tags": {
        "tourism": "attraction"
      }
    },
    {
      "type": "node",
      "id": 293388361,
      "lat": 51.5287223,
      "lon": -0.1613809,
      "tags": {
        "name": "Boat Hire",
        "tourism": "attraction"
      }
    },
    {
      "type": "node",
      "id": 294021389,
      "lat": 51.4412369,
      "lon": -0.3327409,
      "tags": {
        "addr:postcode": "TW1 4RB",
        "addr:street": "Cross Deep",
        "fhrs:id": "353347",
        "name": "The Pope's Grotto",
        "source:addr": "FHRS Open Data",
        "tourism": "hotel"
      }
    },
    {
      "type": "node",
      "id": 295905008,
      "lat": 51.4984689,
      "lon": -0.1433358,
      "tags": {
        "addr:housenumber": "39",
        "addr:street": "Buckingham Palace Road",
        "name": "Rubens Hotel",
        "postal_code": "SW1W 0PS",
        "source": "TMJ-Mobile_0.6.2",
        "tourism": "hotel",
        "website": "http://www.rubenshotel.com"
      }
    },
    {
      "type": "node",
      "id": 295905024,
      "lat": 51.515473,
      "lon": -0.1570192,
      "tags": {
        "addr:housenumber": "30",
        "addr:postcode": "W1H 7BH",
        "addr:street": "Portman Square",
        "contact:email": "london.churchill@hyatt.com",
        "contact:fax": "+44 20 7486 1255",
        "contact:phone": "+44 20 7486 5800",
        "contact:website": "http://london.churchill.hyatt.co.uk/en/hotel/home.html",
        "name": "The Churchill",
        "name:full": "Hyatt Regency London - The Churchill",
        "tourism": "hotel"
      }
    },
    {
      "type": "node",
      "id": 295905061,
      "lat": 51.5221338,
      "lon": -0.1640667,
      "tags": {
        "name": "Travelodge - London Marylebone",
        "tourism": "hotel"
      }
    },
    {
      "type": "node",
      "id": 295905063,
      "lat": 51.5241093,
      "lon": -0.1608709,
      "tags": {
        "name": "Four Seasons Hotel",
        "source": "TMJ-Mobile_0.6.2",
        "tourism": "hotel"
      }
    },
    {
      "type": "node",
      "id": 296889743,
      "lat": 51.5243225,
      "lon": -0.1283055,
      "tags": {
        "addr:city": "London",
        "addr:postcode": "WC1H 9EU",
        "addr:street": "Tavistock Square",
        "name": "Hotel Tavistock",
        "source": "TMJ-Mobile_0.6.2",
        "tourism": "hotel",
        "wheelchair": "limited"
      }
    },
    {
      "type": "node",
      "id": 296889744,
      "lat": 51.5207075,
      "lon": -0.1235907,
      "tags": {
        "name": "Bedford Hotel",
        "source": "TMJ-Mobile_0.6.2",
        "tourism": "hotel",
        "wheelchair": "yes"
      }
    },
    {
      "type": "node",
      "id": 296889746,
      "lat": 51.520684,
      "lon": -0.1228137,
      "tags": {
        "addr:city": "London",
        "addr:housenumber": "126",
        "addr:postcode": "WC1B 5AD",
        "addr:street": "Southampton Row",
        "name": "Bloomsbury Park Hotel",
        "operator": "Thistle Hotels (associate)",
        "source": "TMJ-Mobile_0.6.2",
        "tourism": "hotel"
      }
    },
    {
      "type": "node",
      "id": 297827896,
      "lat": 51.4955821,
      "lon": -0.1893133,
      "tags": {
        "addr:city": "London",
        "addr:country": "GB",
        "addr:housenumber": "18-30",
        "addr:postcode": "W8 5JE",
        "addr:street": "Lexham Gardens",
        "name": "The Park City Kensington",
        "phone": "+44-207-3417090",
        "tourism": "hotel",
        "website": "http://www.parkcitylondon.com/"
      }
    },
    {
      "type": "node",
      "id": 298347045,
      "lat": 51.526395,
      "lon": -0.129567,
      "tags": {
        "addr:housenumber": "8-11",
        "addr:postcode": "WC1H 0JW",
        "addr:street": "Upper Woburn Place",
        "fhrs:id": "424418",
        "name": "County Hotel",
        "phone": "0207 387 5544",
        "tourism": "hotel"
      }
    },
    {
      "type": "node",
      "id": 298347046,
      "lat": 51.5276532,
      "lon": -0.1273678,
      "tags": {
        "name": "Mabeldon Court Hotel",
        "tourism": "hotel"
      }
    },
    {
      "type": "node",
      "id": 298347047,
      "lat": 51.5260651,
      "lon": -0.1261571,
      "tags": {
        "addr:city": "London",
        "addr:country": "GB",
        "addr:housenumber": "61-63",
        "addr:postcode": "WC1H 9EL",
        "addr:street": "Cartwright Gardens",
        "name": "Harlingford Hotel",
        "phone": "+44 20 7387 1551",
        "tourism": "hotel",
        "website": "http://www.harlingfordhotel.com"
      }
    },
    {
      "type": "node",
      "id": 300500875,
      "lat": 51.5403595,
      "lon": -0.146078,
      "tags": {
        "name": "Holiday Inn",
        "source": "TMJ-Mobile_0.6.2",
        "tourism": "hotel"
      }
    },
    {
      "type": "node",
      "id": 300954377,
      "lat": 51.5128624,
      "lon": -0.1837817,
      "tags": {
        "addr:city": "London",
        "addr:housenumber": "25-31",
        "fhrs:confidence_management": "5",
        "fhrs:hygiene": "10",
        "fhrs:id": "411473",
        "fhrs:local_authority_id": "00440/0025/0/000",
        "fhrs:rating": "4",
        "fhrs:rating_date": "2012-02-27",
        "fhrs:structural": "0",
        "name": "The Blakemore",
        "postal_code": "W2 3WA",
        "source:addr": "FSA Food Hygiene Ratings Database",
        "source:postcode": "FSA Food Hygiene Ratings Database",
        "tourism": "hotel"
      }
    },
    {
      "type": "node",
      "id": 300970900,
      "lat": 51.5139304,
      "lon": -0.1841172,
      "tags": {
        "name": "Holiday House Hotel",
        "tourism": "hotel"
      }
    },
    {
      "type": "node",
      "id": 301471453,
      "lat": 51.4476878,
      "lon": -0.0676187,
      "tags": {
        "created_by": "Potlatch 0.10c",
        "tourism": "viewpoint"
      }
    },
    {
      "type": "node",
      "id": 302436172,
      "lat": 51.4258452,
      "lon": -0.0921626,
      "tags": {
        "tourism": "viewpoint"
      }
    },
    {
      "type": "node",
      "id": 304422046,
      "lat": 51.5369731,
      "lon": -0.2569208,
      "tags": {
        "tourism": "artwork"
      }
    },
    {
      "type": "node",
      "id": 304938549,
      "lat": 51.5003912,
      "lon": -0.1772665,
      "tags": {
        "artwork_type": "statue",
        "name": "Memorial to the Great Exhibition",
        "tourism": "artwork",
        "wikidata": "Q18121536",
        "wikipedia": "en:Memorial to the Great Exhibition"
      }
    },
    {
      "type": "node",
      "id": 305075319,
      "lat": 51.6699396,
      "lon": -0.1572604,
      "tags": {
        "created_by": "Potlatch 0.10e",
        "name": "West Lodge Hotel",
        "tourism": "hotel"
      }
    },
    {
      "type": "node",
      "id": 305271099,
      "lat": 51.5516164,
      "lon": -0.3109523,
      "tags": {
        "amenity": "pub",
        "name": "The Fusilier",
        "tourism": "motel"
      }
    },
    {
      "type": "node",
      "id": 306047372,
      "lat": 51.5341226,
      "lon": -0.1068017,
      "tags": {
        "artwork_type": "sculpture",
        "name": "The Angel",
        "tourism": "artwork"
      }
    },
    {
      "type": "node",
      "id": 306473587,
      "lat": 51.5001038,
      "lon": -0.1614634,
      "tags": {
        "created_by": "Potlatch 0.10e",
        "name": "Capital Hotel",
        "tourism": "hotel"
      }
    },
    {
      "type": "node",
      "id": 306473655,
      "lat": 51.5000884,
      "lon": -0.1601195,
      "tags": {
        "created_by": "Potlatch 0.10e",
        "name": "Millenium Hotel",
        "tourism": "hotel"
      }
    },
    {
      "type": "node",
      "id": 308426149,
      "lat": 51.5058129,
      "lon": -0.2226551,
      "tags": {
        "fax": "02087430485",
        "name": "Jim's Guesthouse",
        "phone": "02087430456",
        "tourism": "guest_house",
        "website": "www.jimsguesthouse.co.uk"
      }
    },
    {
      "type": "node",
      "id": 308847205,
      "lat": 51.5225673,
      "lon": -0.0868331,
      "tags": {
        "name": "Travelodge",
        "tourism": "hotel"
      }
    },
    {
      "type": "node",
      "id": 310527489,
      "lat": 51.6226807,
      "lon": -0.2356185,
      "tags": {
        "created_by": "Potlatch 0.10f",
        "name": "Millfield",
        "tourism": "viewpoint"
      }
    },
    {
      "type": "node",
      "id": 311877308,
      "lat": 51.5201101,
      "lon": -0.12213,
      "tags": {
        "addr:city": "London",
        "addr:country": "GB",
        "addr:housenumber": "92",
        "addr:postcode": "WC1B 4BH",
        "addr:street": "Southampton Row",
        "contact:facebook": "https://www.facebook.com/doubletreewestend/",
        "contact:twitter": "https://twitter.com/doubletreeLWE",
        "description": "Located in the historic district of Bloomsbury, this stylish London West End hotel is within walking distance of the British Museum, Covent Garden, Shaftsbury Avenue and the major shops on both Oxford and Regent streets.",
        "email": "reservations@dtlondonwestend.com",
        "fax": "+44 207 831 9170",
        "name": "DoubleTree by Hilton Hotel London - West End",
        "operator": "Hilton Worldwide",
        "phone": "+44 207 242 2828",
        "rooms": "216",
        "smoking": "no",
        "stars": "4",
        "tourism": "hotel",
        "website": "http://doubletree3.hilton.com/en/hotels/united-kingdom/doubletree-by-hilton-hotel-london-west-end-LHRLBDI/index.html?WT.mc_id=zELWAKN0EMEA1DT2DMH3LocalSearch4DGGenericx6LHRLBDI",
        "wheelchair": "yes"
      }
    },
    {
      "type": "node",
      "id": 317421493,
      "lat": 51.3464726,
      "lon": -0.315857,
      "tags": {
        "created_by": "Potlatch 0.10f",
        "name": "Premier Inn",
        "tourism": "hotel",
        "wheelchair": "yes"
      }
    },
    {
      "type": "node",
      "id": 319635445,
      "lat": 51.5243147,
      "lon": -0.0402976,
      "tags": {
        "artist_name": "Wendy Taylor",
        "artwork_type": "sculpture",
        "name": "Knowledge",
        "since": "2003",
        "tourism": "artwork"
      }
    },
    {
      "type": "node",
      "id": 320344531,
      "lat": 51.5489644,
      "lon": -0.032624,
      "tags": {
        "created_by": "Potlatch 0.10f",
        "height": "3m",
        "name": "Mabley Green Boulder",
        "natural": "rock",
        "sport": "climbing",
        "tourism": "attraction"
      }
    },
    {
      "type": "node",
      "id": 320446994,
      "lat": 51.5660122,
      "lon": -0.1897429,
      "tags": {
        "created_by": "Potlatch 0.10f",
        "description": "Sandpit",
        "tourism": "attraction"
      }
    },
    {
      "type": "node",
      "id": 320447653,
      "lat": 51.5681355,
      "lon": -0.1872627,
      "tags": {
        "created_by": "Potlatch 0.10f",
        "description": "Butterfly House",
        "tourism": "attraction"
      }
    },
    {
      "type": "node",
      "id": 321506811,
      "lat": 51.5362342,
      "lon": -0.1278621,
      "tags": {
        "name": "St Pancras Lock",
        "tourism": "attraction",
        "wikipedia": "en:St Pancras Lock"
      }
    },
    {
      "type": "node",
      "id": 321507036,
      "lat": 51.5350528,
      "lon": -0.1297409,
      "tags": {
        "name": "Hardy Tree",
        "natural": "tree",
        "tourism": "attraction"
      }
    },
    {
      "type": "node",
      "id": 322270218,
      "lat": 51.5721717,
      "lon": -0.338153,
      "tags": {
        "addr:housenumber": "36",
        "name": "Old Etonian Hotel",
        "phone": "02084233854",
        "stars": "3",
        "tourism": "motel",
        "website": "http://www.oldetonian.com/"
      }
    },
    {
      "type": "node",
      "id": 333726500,
      "lat": 51.5227666,
      "lon": -0.1389599,
      "tags": {
        "amenity": "restaurant",
        "cuisine": "indian",
        "diet:vegan": "yes",
        "name": "Indian YMCA",
        "tourism": "hostel",
        "wheelchair": "no"
      }
    },
    {
      "type": "node",
      "id": 334631276,
      "lat": 51.5233722,
      "lon": -0.1162091,
      "tags": {
        "addr:housenumber": "48",
        "addr:street": "Doughty Street",
        "comment": "Last admission is at 16:30. Tickets: adult — £6, concession — £4.50, child — £3, family — £15.",
        "name": "Dickens Museum",
        "opening_hours": "10:00-17:00",
        "tourism": "museum"
      }
    },
    {
      "type": "node",
      "id": 336347265,
      "lat": 51.5566742,
      "lon": -0.1081434,
      "tags": {
        "name": "Arsenal Museum",
        "tourism": "museum",
        "wikipedia": "en:Arsenal Football Club Museum"
      }
    },
    {
      "type": "node",
      "id": 336351665,
      "lat": 51.5786747,
      "lon": -0.4272326,
      "tags": {
        "created_by": "Potlatch 0.10f",
        "name": "Manor Farm Complex",
        "tourism": "museum"
      }
    },
    {
      "type": "node",
      "id": 338799188,
      "lat": 51.507557,
      "lon": -0.1146731,
      "tags": {
        "name": "London Pride",
        "tourism": "artwork"
      }
    },
    {
      "type": "node",
      "id": 338799189,
      "lat": 51.5073149,
      "lon": -0.1152445,
      "tags": {
        "name": "Lawrence Olivier As Hamlet",
        "tourism": "artwork"
      }
    },
    {
      "type": "node",
      "id": 339397782,
      "lat": 51.5439172,
      "lon": -0.100417,
      "tags": {
        "name": "Estorick Collection",
        "postal_code": "N1 2AN",
        "tourism": "gallery"
      }
    },
    {
      "type": "node",
      "id": 339857079,
      "lat": 51.5705976,
      "lon": -0.0240807,
      "tags": {
        "name": "Lea Bridge East",
        "tourism": "hostel"
      }
    },
    {
      "type": "node",
      "id": 340052362,
      "lat": 51.5053239,
      "lon": -0.0990338,
      "tags": {
        "name": "Mercure London Bridge",
        "operator": "Accor",
        "tourism": "hotel"
      }
    },
    {
      "type": "node",
      "id": 340053837,
      "lat": 51.4945761,
      "lon": -0.1183966,
      "tags": {
        "created_by": "Potlatch 0.10f",
        "name": "Novotel Waterloo",
        "operator": "Accor",
        "tourism": "hotel",
        "wheelchair": "yes"
      }
    },
    {
      "type": "node",
      "id": 345394073,
      "lat": 51.437278,
      "lon": -0.2055599,
      "tags": {
        "created_by": "Potlatch 0.10f",
        "tourism": "boat hire"
      }
    },
    {
      "type": "node",
      "id": 345399488,
      "lat": 51.4242639,
      "lon": -0.2292406,
      "tags": {
        "addr:housenumber": "20",
        "addr:postcode": "SW19 4UE",
        "addr:street": "West Side Common",
        "alt_name": "Hotel du Vin",
        "fhrs:id": "375823",
        "name": "Cannizaro Park Hotel",
        "tourism": "hotel",
        "website": "https://www.hotelduvin.com/locations/wimbledon/",
        "wheelchair": "limited"
      }
    },
    {
      "type": "node",
      "id": 345405759,
      "lat": 51.359454,
      "lon": -0.2074197,
      "tags": {
        "created_by": "Potlatch 0.10f",
        "name": "Thatched House Hotel",
        "tourism": "hotel"
      }
    },
    {
      "type": "node",
      "id": 345839407,
      "lat": 51.5035988,
      "lon": -0.1286233,
      "tags": {
        "artwork_type": "statue",
        "historic": "memorial",
        "name": "Earl Mountbatten of Burma",
        "tourism": "artwork",
        "wikidata": "Q18548908",
        "wikipedia": "en:Statue of the Earl Mountbatten, London"
      }
    },
    {
      "type": "node",
      "id": 345863424,
      "lat": 51.5063139,
      "lon": -0.1292748,
      "tags": {
        "artwork_type": "statue",
        "historic": "memorial",
        "monument": "statue",
        "name": "Captain James Cook",
        "tourism": "artwork",
        "wikidata": "Q17514442",
        "wikipedia": "en:Statue of Captain James Cook, The Mall"
      }
    },
    {
      "type": "node",
      "id": 345863425,
      "lat": 51.5065383,
      "lon": -0.1295323,
      "tags": {
        "artwork_type": "statue",
        "historic": "memorial",
        "monument": "statue",
        "name": "Royal Marines",
        "tourism": "artwork",
        "wikidata": "Q18121475",
        "wikipedia": "en:Royal Marines Memorial"
      }
    },
    {
      "type": "node",
      "id": 346364635,
      "lat": 51.507645,
      "lon": -0.1280276,
      "tags": {
        "monument": "lion",
        "tourism": "artwork"
      }
    },
    {
      "type": "node",
      "id": 346364721,
      "lat": 51.5078061,
      "lon": -0.1281022,
      "tags": {
        "monument": "lion",
        "tourism": "artwork"
      }
    },
    {
      "type": "node",
      "id": 346364767,
      "lat": 51.5076868,
      "lon": -0.1277675,
      "tags": {
        "monument": "lion",
        "tourism": "artwork"
      }
    },
    {
      "type": "node",
      "id": 346364819,
      "lat": 51.5078519,
      "lon": -0.1278353,
      "tags": {
        "monument": "lion",
        "tourism": "artwork"
      }
    },
    {
      "type": "node",
      "id": 346430283,
      "lat": 51.5083078,
      "lon": -0.124767,
      "tags": {
        "created_by": "Potlatch 0.10f",
        "name": "Amba Hotel Charing Cross",
        "tourism": "hotel"
      }
    },
    {
      "type": "node",
      "id": 347084635,
      "lat": 51.4997936,
      "lon": -0.1424564,
      "tags": {
        "name": "The Queen's Gallery",
        "operator": "The Royal Collection",
        "tourism": "gallery",
        "website": "http://www.royalcollection.org.uk/default.asp?action=article&ID=32",
        "wheelchair": "yes",
        "wikipedia": "en:Queen\\'s Gallery"
      }
    },
    {
      "type": "node",
      "id": 347151757,
      "lat": 51.5013601,
      "lon": -0.1160331,
      "tags": {
        "addr:housenumber": "1",
        "addr:street": "Addington Street",
        "name": "Park Plaza",
        "phone": "02070211800",
        "postal_code": "SE1 7RY",
        "tourism": "hotel",
        "website": "http://www.parkplaza.com/countyhall_london"
      }
    },
    {
      "type": "node",
      "id": 347420319,
      "lat": 51.5065905,
      "lon": -0.0896235,
      "tags": {
        "artwork_type": "statue",
        "name": "Minerva",
        "tourism": "artwork"
      }
    },
    {
      "type": "node",
      "id": 352646239,
      "lat": 51.4934236,
      "lon": -0.2058463,
      "tags": {
        "addr:city": "London",
        "addr:housenumber": "25",
        "addr:postcode": "W14 8UJ",
        "addr:street": "Matheson Road",
        "internet_access": "wlan",
        "name": "Kensington west hotel",
        "phone": "00442076029954",
        "smoking": "no",
        "tourism": "hotel",
        "website": "kensingtonwest.org"
      }
    },
    {
      "type": "node",
      "id": 356778681,
      "lat": 51.491409,
      "lon": -0.200338,
      "tags": {
        "addr:housenumber": "57",
        "addr:street": "Philbeach Gardens",
        "name": "Beaver Hotel",
        "tourism": "hotel"
      }
    },
    {
      "type": "node",
      "id": 356800880,
      "lat": 51.49026,
      "lon": -0.1989118,
      "tags": {
        "addr:housenumber": "27-28",
        "addr:street": "Philbeach Gardens",
        "name": "York House Hotel",
        "tourism": "hotel"
      }
    },
    {
      "type": "node",
      "id": 356833433,
      "lat": 51.4930268,
      "lon": -0.1972447,
      "tags": {
        "addr:housenumber": "43-45",
        "addr:street": "Longridge Road",
        "name": "Olave House",
        "tourism": "hostel"
      }
    },
    {
      "type": "node",
      "id": 356846267,
      "lat": 51.4934282,
      "lon": -0.1961452,
      "tags": {
        "addr:housenumber": "21-23",
        "addr:street": "Longridge Road",
        "name": "James Hotel",
        "tourism": "hotel"
      }
    },
    {
      "type": "node",
      "id": 356846269,
      "lat": 51.4934935,
      "lon": -0.195948,
      "tags": {
        "addr:housenumber": "17",
        "addr:street": "Longridge Road",
        "name": "Barmy Badgers Backpackers",
        "tourism": "hostel",
        "url": "http://www.barmybadger.com"
      }
    },
    {
      "type": "node",
      "id": 360016753,
      "lat": 51.5519566,
      "lon": 0.2826033,
      "tags": {
        "name": "Thames Chase Visitor Centre",
        "tourism": "attraction"
      }
    },
    {
      "type": "node",
      "id": 364431460,
      "lat": 51.6603702,
      "lon": -0.0981505,
      "tags": {
        "name": "Comfort Hotel (closed)",
        "tourism": "hotel"
      }
    },
    {
      "type": "node",
      "id": 366068431,
      "lat": 51.4214247,
      "lon": -0.0760193,
      "tags": {
        "tourism": "viewpoint"
      }
    },
    {
      "type": "node",
      "id": 366886377,
      "lat": 51.5561309,
      "lon": -0.0355836,
      "tags": {
        "tourism": "artwork"
      }
    },
    {
      "type": "node",
      "id": 366909353,
      "lat": 51.5173879,
      "lon": -0.1406166,
      "tags": {
        "addr:housenumber": "3",
        "addr:street": "Little Portland Street",
        "alt_name": "GRAD",
        "name": "Gallery for Russian Arts and Design",
        "tourism": "gallery"
      }
    },
    {
      "type": "node",
      "id": 370092514,
      "lat": 51.5851527,
      "lon": -0.1155848,
      "tags": {
        "name": "White Lodge Hotel",
        "tourism": "hotel"
      }
    },
    {
      "type": "node",
      "id": 370189735,
      "lat": 51.5173407,
      "lon": -0.1304169,
      "tags": {
        "name": "London Central YMCA",
        "tourism": "hostel"
      }
    },
    {
      "type": "node",
      "id": 371519726,
      "lat": 51.5234859,
      "lon": -0.0723316,
      "tags": {
        "name": "Sunday Market",
        "tourism": "attraction"
      }
    },
    {
      "type": "node",
      "id": 375843908,
      "lat": 51.5156254,
      "lon": -0.1759924,
      "tags": {
        "addr:city": "London",
        "addr:housenumber": "146",
        "addr:postcode": "W2 1EE",
        "addr:street": "Praed Street",
        "building": "yes",
        "contact:facebook": "https://www.facebook.com/londonhiltonpaddington",
        "contact:google_plus": "https://plus.google.com/+HiltonLondonPaddington/about?hl=en",
        "contact:twitter": "https://twitter.com/HiltonPadd",
        "email": "reservations.paddington@hilton.com",
        "fax": "+44 0207 850 0600",
        "name": "Hilton London Paddington",
        "operator": "Hilton Worldwide",
        "phone": "+44 207 850 0500",
        "rooms": "419",
        "smoking": "no",
        "stars": "4",
        "tourism": "hotel",
        "website": "http://www3.hilton.com/en/hotels/united-kingdom/hilton-london-paddington-LONPDHI/index.html?WT.mc_id=zELWAKN0EMEA1HI2DMH3LocalSearch4DGGenericx6LONPDHI"
      }
    },
    {
      "type": "node",
      "id": 379265864,
      "lat": 51.3870489,
      "lon": -0.2691937,
      "tags": {
        "information": "wildlife",
        "name": "from the A3 to the railway bridge",
        "tourism": "information"
      }
    },
    {
      "type": "node",
      "id": 379265867,
      "lat": 51.3868176,
      "lon": -0.2693458,
      "tags": {
        "information": "guidepost",
        "tourism": "information"
      }
    },
    {
      "type": "node",
      "id": 379422397,
      "lat": 51.3884483,
      "lon": -0.2706141,
      "tags": {
        "information": "guidepost",
        "tourism": "information"
      }
    },
    {
      "type": "node",
      "id": 379422435,
      "lat": 51.3963977,
      "lon": -0.275858,
      "tags": {
        "information": "guidepost",
        "tourism": "information"
      }
    },
    {
      "type": "node",
      "id": 379422436,
      "lat": 51.3930403,
      "lon": -0.2729641,
      "tags": {
        "information": "guidepost",
        "tourism": "information"
      }
    },
    {
      "type": "node",
      "id": 379422437,
      "lat": 51.3909482,
      "lon": -0.2709822,
      "tags": {
        "information": "guidepost",
        "tourism": "information"
      }
    },
    {
      "type": "node",
      "id": 379422438,
      "lat": 51.3907898,
      "lon": -0.2707485,
      "tags": {
        "information": "wildlife",
        "name": "from Tolworth brook to the A3",
        "tourism": "information"
      }
    },
    {
      "type": "node",
      "id": 379422439,
      "lat": 51.3894173,
      "lon": -0.2701085,
      "tags": {
        "information": "guidepost",
        "tourism": "information"
      }
    },
    {
      "type": "node",
      "id": 381106486,
      "lat": 51.489325,
      "lon": -0.1276005,
      "tags": {
        "artist_name": "Henry Moore",
        "artwork_type": "sculpture",
        "name": "Locking Piece",
        "tourism": "artwork"
      }
    },
    {
      "type": "node",
      "id": 385142367,
      "lat": 51.4609643,
      "lon": -0.2755738,
      "tags": {
        "addr:housenumber": "10",
        "addr:postcode": "SW14 7RT",
        "addr:street": "West Temple Sheen",
        "amenity": "pub",
        "fhrs:id": "353345",
        "name": "The Victoria",
        "source:addr:postcode": "FHRS",
        "tourism": "guest_house"
      }
    },
    {
      "type": "node",
      "id": 387544035,
      "lat": 51.3936864,
      "lon": -0.3033492,
      "tags": {
        "name": "Bosco Hotel & Lounge",
        "tourism": "hotel"
      }
    },
    {
      "type": "node",
      "id": 388111151,
      "lat": 51.5208304,
      "lon": -0.1310237,
      "tags": {
        "tourism": "hotel"
      }
    },
    {
      "type": "node",
      "id": 389783501,
      "lat": 51.4974761,
      "lon": 0.0370226,
      "tags": {
        "name": "Thames Barrier",
        "name:fr": "Barrière de la Tamise",
        "tourism": "attraction",
        "wikipedia": "en:Thames Barrier"
      }
    },
    {
      "type": "node",
      "id": 391020868,
      "lat": 51.536948,
      "lon": -0.139655,
      "tags": {
        "addr:housenumber": "57",
        "addr:street": "Bayham Street",
        "name": "Camden Inn",
        "tourism": "hostel",
        "wheelchair": "no"
      }
    },
    {
      "type": "node",
      "id": 393523285,
      "lat": 51.565907,
      "lon": -0.102124,
      "tags": {
        "addr:housenumber": "324",
        "addr:street": "Seven Sisters Road",
        "name": "Queens Hotel",
        "tourism": "hotel"
      }
    },
    {
      "type": "node",
      "id": 393523286,
      "lat": 51.5660169,
      "lon": -0.1019716,
      "tags": {
        "cuisine": "portuguese",
        "name": "Pembury Hotel",
        "restaurant": "yes",
        "tourism": "hotel"
      }
    },
    {
      "type": "node",
      "id": 393523294,
      "lat": 51.5655921,
      "lon": -0.1014279,
      "tags": {
        "name": "Gloucester Hotel",
        "tourism": "hotel"
      }
    },
    {
      "type": "node",
      "id": 393523305,
      "lat": 51.5636052,
      "lon": -0.0982132,
      "tags": {
        "addr:housenumber": "113",
        "name": "Brownswood Guest House",
        "tourism": "hotel"
      }
    },
    {
      "type": "node",
      "id": 402735697,
      "lat": 51.4449229,
      "lon": -0.2947744,
      "tags": {
        "description": "Protected view to St Paul's Cathedral",
        "name": "King Henry VIII's Mound",
        "tourism": "viewpoint"
      }
    },
    {
      "type": "node",
      "id": 408561660,
      "lat": 51.546004,
      "lon": -0.2189896,
      "tags": {
        "name": "Brondesbury Park Hostel",
        "tourism": "hostel"
      }
    },
    {
      "type": "node",
      "id": 409911784,
      "lat": 51.4896485,
      "lon": -0.1276931,
      "tags": {
        "artist_name": "Enzo Plazzotta",
        "artwork_type": "statue",
        "name": "Jete",
        "tourism": "artwork",
        "wikidata": "Q5381518",
        "wikipedia": "en:Enzo Plazzotta"
      }
    },
    {
      "type": "node",
      "id": 411115349,
      "lat": 51.5517211,
      "lon": -0.2096644,
      "tags": {
        "addr:housenumber": "71 & 73",
        "addr:street": "Shoot Up Hill",
        "name": "Seafield Lodge",
        "tourism": "hotel"
      }
    },
    {
      "type": "node",
      "id": 411115351,
      "lat": 51.5516244,
      "lon": -0.2095171,
      "tags": {
        "tourism": "hotel"
      }
    },
    {
      "type": "node",
      "id": 411901765,
      "lat": 51.5142404,
      "lon": -0.3192305,
      "tags": {
        "addr:housenumber": "2",
        "addr:postcode": "W13 8PH",
        "addr:street": "The Avenue",
        "name": "The Drayton Court Hotel",
        "operator": "Fuller's",
        "tourism": "hotel",
        "wheelchair": "yes"
      }
    },
    {
      "type": "node",
      "id": 413596123,
      "lat": 51.5174483,
      "lon": -0.1304949,
      "tags": {
        "name": "St Giles Hotel",
        "operator": "St Giles Hotels",
        "tourism": "hotel",
        "website": "http://www.stgiles.com/london-hotels/stgiles-london-hotel/home/",
        "wheelchair": "limited"
      }
    },
    {
      "type": "node",
      "id": 419006541,
      "lat": 51.5179303,
      "lon": -0.1424688,
      "tags": {
        "name": "Saint Georges Hotel",
        "tourism": "hotel"
      }
    },
    {
      "type": "node",
      "id": 419547578,
      "lat": 51.5558837,
      "lon": -0.4328527,
      "tags": {
        "information": "wildlife",
        "tourism": "information"
      }
    },
    {
      "type": "node",
      "id": 420309256,
      "lat": 51.4069852,
      "lon": 0.0267737,
      "tags": {
        "amenity": "restaurant",
        "name": "Tamasha",
        "tourism": "hotel"
      }
    },
    {
      "type": "node",
      "id": 420752288,
      "lat": 51.4063833,
      "lon": 0.011684,
      "tags": {
        "name": "Bromley Zoo mural",
        "tourism": "artwork"
      }
    },
    {
      "type": "node",
      "id": 420776030,
      "lat": 51.4149244,
      "lon": 0.0915886,
      "tags": {
        "tourism": "picnic_site"
      }
    },
    {
      "type": "node",
      "id": 421317867,
      "lat": 51.5297301,
      "lon": -0.1239797,
      "tags": {
        "name": "Megaro Hotel",
        "tourism": "hotel"
      }
    },
    {
      "type": "node",
      "id": 425161475,
      "lat": 51.5263468,
      "lon": -0.1134575,
      "tags": {
        "name": "Holiday Inn",
        "tourism": "hotel"
      }
    },
    {
      "type": "node",
      "id": 425669383,
      "lat": 51.3594247,
      "lon": -0.2171365,
      "tags": {
        "description": "A historic tudor home with later additions from the Stuart, Georgian and Victorian periods.",
        "flickr": "3960636881",
        "name": "Whitehall",
        "tourism": "museum",
        "website": "http://www.friendsofwhitehallcheam.co.uk",
        "wikipedia": "en:Whitehall (Sutton)"
      }
    },
    {
      "type": "node",
      "id": 425720622,
      "lat": 51.5347478,
      "lon": -0.1220578,
      "tags": {
        "addr:city": "London",
        "addr:housename": "Kings Place",
        "addr:housenumber": "90",
        "addr:postcode": "N1 9AG",
        "addr:street": "York Way",
        "name": "Pangolini",
        "tourism": "gallery"
      }
    },
    {
      "type": "node",
      "id": 425953936,
      "lat": 51.3968319,
      "lon": 0.0591447,
      "tags": {
        "amenity": "restaurant",
        "name": "Bickley Manor Hotel and Restaurant",
        "tourism": "hotel"
      }
    },
    {
      "type": "node",
      "id": 426919126,
      "lat": 51.5357203,
      "lon": -0.1036211,
      "tags": {
        "artwork_type": "sculpture",
        "historic": "monument",
        "name": "Sir Hugh Myddleton Memorial",
        "tourism": "artwork"
      }
    },
    {
      "type": "node",
      "id": 427931755,
      "lat": 51.5293476,
      "lon": -0.1219027,
      "tags": {
        "addr:housenumber": "9",
        "addr:postcode": "WC1H 8AS",
        "addr:street": "Argyle Square",
        "fhrs:id": "424031",
        "name": "Howard Winchester",
        "postal_code": "WC1H 8AS",
        "tourism": "hotel"
      }
    },
    {
      "type": "node",
      "id": 427931756,
      "lat": 51.5292504,
      "lon": -0.1218055,
      "tags": {
        "addr:housenumber": "11-15",
        "addr:postcode": "WC1H 8AS",
        "addr:street": "Argyle Square",
        "fhrs:id": "424032",
        "name": "European Hotel",
        "postal_code": "WC1H 8AS",
        "tourism": "hotel"
      }
    },
    {
      "type": "node",
      "id": 427931757,
      "lat": 51.5290388,
      "lon": -0.1215913,
      "tags": {
        "addr:housenumber": "16-17",
        "addr:postcode": "WC1H 8AS",
        "addr:street": "Argyle Square",
        "fhrs:id": "426367",
        "fhrs:note": "Has 16-18 as address in FHRS data",
        "name": "Hotel Montana",
        "postal_code": "WC1H 8AS",
        "tourism": "hotel"
      }
    },
    {
      "type": "node",
      "id": 427931758,
      "lat": 51.5289068,
      "lon": -0.1214553,
      "tags": {
        "addr:housenumber": "19-20",
        "addr:street": "Argyle Square",
        "name": "Elmwood Hotel",
        "postal_code": "WC1H 8AS",
        "tourism": "hotel"
      }
    },
    {
      "type": "node",
      "id": 428964045,
      "lat": 51.4908359,
      "lon": -0.1449886,
      "tags": {
        "name": "The Grapevine",
        "tourism": "hotel"
      }
    },
    {
      "type": "node",
      "id": 428964046,
      "lat": 51.4908589,
      "lon": -0.1448669,
      "tags": {
        "addr:city": "London",
        "addr:housenumber": "115",
        "addr:street": "Warwick Way",
        "fhrs:confidence_management": "10",
        "fhrs:hygiene": "15",
        "fhrs:id": "413083",
        "fhrs:local_authority_id": "01044/0115/0/000",
        "fhrs:rating": "2",
        "fhrs:rating_date": "2011-07-06",
        "fhrs:structural": "10",
        "name": "Olympic House Hotel",
        "postal_code": "SW1V 4HT",
        "source:addr": "FSA Food Hygiene Ratings Database",
        "source:postcode": "FSA Food Hygiene Ratings Database",
        "tourism": "hotel"
      }
    },
    {
      "type": "node",
      "id": 429269997,
      "lat": 51.5300868,
      "lon": -0.1203379,
      "tags": {
        "addr:city": "LONDON",
        "addr:housenumber": "362",
        "addr:postcode": "WC1X 8BH",
        "addr:street": "Gray's Inn Road",
        "name": "Travelodge",
        "tourism": "hotel"
      }
    },
    {
      "type": "node",
      "id": 430443306,
      "lat": 51.530409,
      "lon": -0.1222049,
      "tags": {
        "name": "Carlton Hotel",
        "tourism": "hotel"
      }
    },
    {
      "type": "node",
      "id": 430443724,
      "lat": 51.5303289,
      "lon": -0.1221277,
      "tags": {
        "name": "Rough Luxe",
        "source": "Walking papers",
        "tourism": "hotel"
      }
    },
    {
      "type": "node",
      "id": 430443834,
      "lat": 51.5300565,
      "lon": -0.1218616,
      "tags": {
        "addr:postcode": "WC1H 8BA",
        "addr:street": "Birkenhead Street",
        "fhrs:id": "424482",
        "name": "Carlisle Hotel",
        "source": "Walking papers",
        "source:addr": "FHRS Open Data",
        "tourism": "hotel"
      }
    },
    {
      "type": "node",
      "id": 430444169,
      "lat": 51.529907,
      "lon": -0.1216299,
      "tags": {
        "name": "Clifton Hotel",
        "tourism": "hotel"
      }
    },
    {
      "type": "node",
      "id": 430634376,
      "lat": 51.4908436,
      "lon": -0.1441643,
      "tags": {
        "addr:city": "London",
        "addr:housenumber": "118-120",
        "addr:street": "Warwick Way",
        "fhrs:confidence_management": "10",
        "fhrs:hygiene": "5",
        "fhrs:id": "413084",
        "fhrs:local_authority_id": "01044/0118/1/000",
        "fhrs:rating": "3",
        "fhrs:rating_date": "2012-04-17",
        "fhrs:structural": "10",
        "name": "Elizabeth House",
        "operator": "privite",
        "postal_code": "SW1V 1RX",
        "source:addr": "FSA Food Hygiene Ratings Database",
        "source:postcode": "FSA Food Hygiene Ratings Database",
        "tourism": "hotel"
      }
    },
    {
      "type": "node",
      "id": 430634380,
      "lat": 51.4906898,
      "lon": -0.1446095,
      "tags": {
        "name": "Bankers Hotel",
        "operator": "Private",
        "tourism": "hotel"
      }
    },
    {
      "type": "node",
      "id": 430634396,
      "lat": 51.4908062,
      "lon": -0.1440098,
      "tags": {
        "addr:city": "London",
        "addr:housenumber": "29-31",
        "fhrs:confidence_management": "10",
        "fhrs:hygiene": "5",
        "fhrs:id": "411136",
        "fhrs:local_authority_id": "00194/0029/0/000",
        "fhrs:rating": "3",
        "fhrs:rating_date": "2012-04-20",
        "fhrs:structural": "10",
        "name": "Airways Hotel",
        "operator": "Privite",
        "postal_code": "SW1V 4BP",
        "source:addr": "FSA Food Hygiene Ratings Database",
        "source:postcode": "FSA Food Hygiene Ratings Database",
        "tourism": "hotel"
      }
    },
    {
      "type": "node",
      "id": 431358138,
      "lat": 51.5231059,
      "lon": -0.1269058,
      "tags": {
        "addr:housenumber": "35-81",
        "addr:street": "Bedford Way",
        "name": "Hotel Royal National",
        "phone": "+44 20 72787871",
        "tourism": "hotel",
        "wheelchair": "yes"
      }
    },
    {
      "type": "node",
      "id": 432038551,
      "lat": 51.5345092,
      "lon": -0.0256761,
      "tags": {
        "name": "Giant Flower",
        "tourism": "artwork"
      }
    },
    {
      "type": "node",
      "id": 432038702,
      "lat": 51.5344398,
      "lon": -0.0256246,
      "tags": {
        "name": "Giant Flower",
        "tourism": "artwork"
      }
    },
    {
      "type": "node",
      "id": 432450506,
      "lat": 51.4462619,
      "lon": 0.1539859,
      "tags": {
        "note": "formerly Black Prince Hotel",
        "tourism": "hotel"
      }
    },
    {
      "type": "node",
      "id": 432693219,
      "lat": 51.4326239,
      "lon": -0.3163957,
      "tags": {
        "information": "board",
        "tourism": "information"
      }
    },
    {
      "type": "node",
      "id": 432693220,
      "lat": 51.4317636,
      "lon": -0.3156693,
      "tags": {
        "information": "sitemap",
        "tourism": "information"
      }
    },
    {
      "type": "node",
      "id": 434527462,
      "lat": 51.5327497,
      "lon": -0.0310834,
      "tags": {
        "addr:housenumber": "527",
        "addr:postcode": "E3 5EL",
        "addr:street": "Roman Road",
        "name": "City View Hotel",
        "old_name": "The Trader",
        "tourism": "hotel"
      }
    },
    {
      "type": "node",
      "id": 439562279,
      "lat": 51.5113525,
      "lon": -0.1869471,
      "tags": {
        "name": "Fat Tire Bike Tours",
        "shop": "bicycle",
        "tourism": "yes"
      }
    },
    {
      "type": "node",
      "id": 441294238,
      "lat": 51.4863215,
      "lon": 0.0959941,
      "tags": {
        "name": "Borough Museum",
        "tourism": "museum"
      }
    },
    {
      "type": "node",
      "id": 441948421,
      "lat": 51.5073583,
      "lon": -0.115794,
      "tags": {
        "name": "South Bank Book Market",
        "tourism": "attraction",
        "wheelchair": "yes"
      }
    },
    {
      "type": "node",
      "id": 443449147,
      "lat": 51.497878,
      "lon": -0.125909,
      "tags": {
        "artist_name": "Henry Moore",
        "artwork_type": "sculpture",
        "name": "Knife Edge Two Piece",
        "start_date": "1967",
        "tourism": "artwork",
        "wheelchair": "yes",
        "wikipedia": "en:Knife Edge Two Piece 1962–65"
      }
    },
    {
      "type": "node",
      "id": 447868805,
      "lat": 51.5202064,
      "lon": -0.1240489,
      "tags": {
        "addr:city": "London",
        "addr:country": "GB",
        "addr:housenumber": "10",
        "addr:street": "Bedford Place",
        "name": "Lonsdale Hotel",
        "tourism": "hotel"
      }
    },
    {
      "type": "node",
      "id": 447869129,
      "lat": 51.5199748,
      "lon": -0.1237817,
      "tags": {
        "addr:city": "London",
        "addr:country": "GB",
        "addr:housenumber": "6",
        "addr:street": "Bedford Place",
        "name": "The Lancaster",
        "tourism": "hotel"
      }
    },
    {
      "type": "node",
      "id": 447919690,
      "lat": 51.5483116,
      "lon": -0.0536307,
      "tags": {
        "tourism": "information"
      }
    },
    {
      "type": "node",
      "id": 448511916,
      "lat": 51.4973611,
      "lon": -0.1562075,
      "tags": {
        "name": "Sheraton Belgravia",
        "tourism": "hotel"
      }
    },
    {
      "type": "node",
      "id": 452149650,
      "lat": 51.5152781,
      "lon": -0.1593618,
      "tags": {
        "construction": "hotel",
        "name": "The Montcalm Hotel Nikko",
        "note": "Building works; when the works finish they might change the name too.  2009-07-30",
        "tourism": "hotel"
      }
    },
    {
      "type": "node",
      "id": 452149684,
      "lat": 51.5155213,
      "lon": -0.1605355,
      "tags": {
        "addr:housenumber": "22",
        "addr:street": "Upper Berkeley Street",
        "name": "Berkeley Court Hotel",
        "phone": "+44 20 7262 3091",
        "tourism": "hotel"
      }
    },
    {
      "type": "node",
      "id": 452149692,
      "lat": 51.5154778,
      "lon": -0.160789,
      "tags": {
        "addr:housenumber": "24",
        "addr:street": "Upper Berkeley Street",
        "name": "The Hadleigh Hotel",
        "tourism": "hotel"
      }
    },
    {
      "type": "node",
      "id": 452149697,
      "lat": 51.515442,
      "lon": -0.1610345,
      "tags": {
        "addr:city": "London",
        "addr:housenumber": "26",
        "addr:street": "Upper Berkeley Street",
        "fhrs:confidence_management": "10",
        "fhrs:hygiene": "10",
        "fhrs:id": "412132",
        "fhrs:local_authority_id": "00674/0026/0/000",
        "fhrs:rating": "3",
        "fhrs:rating_date": "2011-11-29",
        "fhrs:structural": "10",
        "name": "Boston Court Hotel",
        "phone": "+44 20 7723 1445",
        "postal_code": "W1H 7PF",
        "source:postcode": "FSA Food Hygiene Ratings Database",
        "tourism": "hotel"
      }
    },
    {
      "type": "node",
      "id": 452168080,
      "lat": 51.51516,
      "lon": -0.161579,
      "tags": {
        "addr:housenumber": "49-50",
        "addr:street": "Upper Berkeley Street",
        "name": "Marble Arch Inn",
        "phone": "+44 20 7723 7888",
        "tourism": "hotel"
      }
    },
    {
      "type": "node",
      "id": 452168087,
      "lat": 51.5157145,
      "lon": -0.1602317,
      "tags": {
        "addr:housenumber": "41",
        "addr:street": "Great Cumberland Place",
        "name": "Glynne Court Hotel",
        "tourism": "hotel"
      }
    },
    {
      "type": "node",
      "id": 452212190,
      "lat": 51.5136068,
      "lon": -0.143647,
      "tags": {
        "artwork": "statue",
        "historic": "monument",
        "tourism": "artwork"
      }
    },
    {
      "type": "node",
      "id": 452238500,
      "lat": 51.5113029,
      "lon": -0.1426186,
      "tags": {
        "name": "The Westbury",
        "tourism": "hotel"
      }
    },
    {
      "type": "node",
      "id": 452515785,
      "lat": 51.5102243,
      "lon": -0.1340989,
      "tags": {
        "name": "Ripley's Believe it or Not!",
        "tourism": "attraction",
        "wheelchair": "yes"
      }
    },
    {
      "type": "node",
      "id": 454538468,
      "lat": 51.5059345,
      "lon": -0.1323299,
      "tags": {
        "addr:city": "London",
        "addr:housenumber": "6-9",
        "addr:street": "Carlton House Terrace",
        "fhrs:confidence_management": "0",
        "fhrs:hygiene": "0",
        "fhrs:id": "412345",
        "fhrs:local_authority_id": "00779/0006/0/000",
        "fhrs:rating": "5",
        "fhrs:rating_date": "2012-11-29",
        "fhrs:structural": "5",
        "name": "The Royal Society",
        "postal_code": "SW1Y 5AG",
        "source:addr": "FSA Food Hygiene Ratings Database",
        "source:postcode": "FSA Food Hygiene Ratings Database",
        "tourism": "attraction"
      }
    },
    {
      "type": "node",
      "id": 455705578,
      "lat": 51.513012,
      "lon": -0.1134274,
      "tags": {
        "information": "map",
        "source": "survey",
        "tourism": "information"
      }
    },
    {
      "type": "node",
      "id": 458752777,
      "lat": 51.57297,
      "lon": -0.0706834,
      "tags": {
        "addr:city": "London",
        "addr:housename": "Kadimah Hotel",
        "addr:housenumber": "146",
        "addr:postcode": "E5 9AG",
        "addr:street": "Clapton Common",
        "fhrs:authority": "Hackney",
        "fhrs:id": "536805",
        "fhrs:local_authority_id": "157147",
        "name": "Kadimah",
        "source:addr": "FHRS Open Data",
        "tourism": "hotel"
      }
    },
    {
      "type": "node",
      "id": 459665774,
      "lat": 51.5812124,
      "lon": 0.2523707,
      "tags": {
        "tourism": "picnic_site"
      }
    },
    {
      "type": "node",
      "id": 459784772,
      "lat": 51.3630387,
      "lon": -0.0592524,
      "tags": {
        "tourism": "viewpoint"
      }
    },
    {
      "type": "node",
      "id": 462025238,
      "lat": 51.51258,
      "lon": -0.1508695,
      "tags": {
        "addr:city": "London",
        "addr:housenumber": "84-86",
        "addr:postcode": "W1K 6JP",
        "addr:street": "Duke Street",
        "fhrs:id": "427785",
        "name": "Marriott",
        "source:addr": "FHRS Open Data",
        "tourism": "hotel"
      }
    },
    {
      "type": "node",
      "id": 467315561,
      "lat": 51.4469713,
      "lon": -0.3580968,
      "tags": {
        "name": "Premier Inn",
        "tourism": "motel"
      }
    },
    {
      "type": "node",
      "id": 469456581,
      "lat": 51.5700523,
      "lon": -0.0963959,
      "tags": {
        "addr:housenumber": "420",
        "name": "Cloudesley House",
        "tourism": "hotel"
      }
    },
    {
      "type": "node",
      "id": 469456582,
      "lat": 51.569996,
      "lon": -0.0964787,
      "tags": {
        "name": "Redland Hotel",
        "phone": "800 1826",
        "tourism": "hotel"
      }
    },
    {
      "type": "node",
      "id": 469456584,
      "lat": 51.5698537,
      "lon": -0.0966468,
      "tags": {
        "name": "Kent Hall",
        "phone": "020 8802 0800",
        "tourism": "hotel"
      }
    },
    {
      "type": "node",
      "id": 469456586,
      "lat": 51.5669314,
      "lon": -0.1005194,
      "tags": {
        "addr:city": "London Borough of Hackney",
        "addr:housenumber": "346",
        "addr:postcode": "N4 2PG",
        "addr:street": "Seven Sisters Road",
        "name": "Lanark Hotel",
        "phone": "020 8800 7625",
        "tourism": "hotel"
      }
    },
    {
      "type": "node",
      "id": 469876294,
      "lat": 51.4919243,
      "lon": -0.1684868,
      "tags": {
        "addr:housenumber": "35",
        "addr:street": "Ixworth Place",
        "name": "MyHotel",
        "postal_code": "SW3 3QX",
        "tourism": "hotel"
      }
    },
    {
      "type": "node",
      "id": 471557241,
      "lat": 51.4190902,
      "lon": -0.0628065,
      "tags": {
        "information": "guidepost",
        "name": "Green Chain Walk Finish",
        "tourism": "information"
      }
    },
    {
      "type": "node",
      "id": 472152158,
      "lat": 51.5048027,
      "lon": -0.1156513,
      "tags": {
        "name": "Topolski Century",
        "tourism": "museum",
        "website": "http://www.topolskicentury.org.uk/",
        "wikipedia": "en:Topolski Century"
      }
    },
    {
      "type": "node",
      "id": 472670121,
      "lat": 51.4875177,
      "lon": 0.1601727,
      "tags": {
        "information": "guidepost",
        "name": "Green Chain",
        "tourism": "information"
      }
    },
    {
      "type": "node",
      "id": 479736311,
      "lat": 51.501709,
      "lon": -0.1188586,
      "tags": {
        "addr:postcode": "SE1 7PB",
        "addr:street": "Westminster Bridge Road",
        "name": "London Marriott Hotel County Hall",
        "tourism": "hotel"
      }
    },
    {
      "type": "node",
      "id": 482790767,
      "lat": 51.5654371,
      "lon": -0.0705193,
      "tags": {
        "tourism": "gallery"
      }
    },
    {
      "type": "node",
      "id": 486544194,
      "lat": 51.5928124,
      "lon": -0.4320592,
      "tags": {
        "alt_name": "Ruislip Lido Station",
        "name": "Willow Lawn Station",
        "railway": "station",
        "tourism": "narrow_gauge_railway"
      }
    },
    {
      "type": "node",
      "id": 486544208,
      "lat": 51.5886994,
      "lon": -0.4291065,
      "tags": {
        "name": "Woody Bay Station",
        "railway": "station",
        "tourism": "narrow_gauge_railway"
      }
    },
    {
      "type": "node",
      "id": 487085612,
      "lat": 51.5288722,
      "lon": -0.1589,
      "tags": {
        "name": "The Treehouse Gallery",
        "tourism": "attraction",
        "website": "http://www.thetreehousegallery.org/"
      }
    },
    {
      "type": "node",
      "id": 489826760,
      "lat": 51.5059548,
      "lon": -0.1491165,
      "tags": {
        "addr:city": "London",
        "addr:housenumber": "2",
        "addr:street": "Stanhope Row",
        "fhrs:confidence_management": "5",
        "fhrs:hygiene": "5",
        "fhrs:id": "414173",
        "fhrs:local_authority_id": "01569/0002/0/000",
        "fhrs:rating": "4",
        "fhrs:rating_date": "2012-06-27",
        "fhrs:structural": "10",
        "name": "Park Lane Mews Hotel",
        "postal_code": "W1J 7BS",
        "tourism": "hotel",
        "url": "http://www.parklanemewshotel.com/"
      }
    },
    {
      "type": "node",
      "id": 497232364,
      "lat": 51.512657,
      "lon": -0.1476217,
      "tags": {
        "addr:city": "London",
        "addr:housenumber": "30",
        "addr:street": "Mayfair",
        "fhrs:confidence_management": "10",
        "fhrs:hygiene": "15",
        "fhrs:id": "412623",
        "fhrs:local_authority_id": "00906/0053/0/000",
        "fhrs:rating": "2",
        "fhrs:rating_date": "2013-06-01",
        "fhrs:structural": "5",
        "name": "Claridges",
        "postal_code": "W1A 2JQ",
        "source:addr": "FSA Food Hygiene Ratings Database",
        "source:postcode": "FSA Food Hygiene Ratings Database",
        "tourism": "hotel",
        "wikipedia": "en:Claridge's"
      }
    },
    {
      "type": "node",
      "id": 498694200,
      "lat": 51.4860223,
      "lon": -0.1719956,
      "tags": {
        "addr:housenumber": "253",
        "amenity": "arts_centre",
        "name": "Northcote Gallery",
        "tourism": "gallery"
      }
    },
    {
      "type": "node",
      "id": 502278089,
      "lat": 51.4950123,
      "lon": -0.1413006,
      "tags": {
        "addr:housenumber": "280",
        "addr:postcode": "SW1V 1BB",
        "addr:street": "Vauxhall Bridge Road",
        "fhrs:id": "413524",
        "name": "Station Hotel",
        "payment:american_express": "yes",
        "source:addr": "FHRS Open Data",
        "tourism": "hotel",
        "url": "http://www.victoriastationhotel.co.uk/"
      }
    },
    {
      "type": "node",
      "id": 502950179,
      "lat": 51.5147246,
      "lon": -0.1325531,
      "tags": {
        "description": "Pay per use pillar",
        "name": "Internet Access",
        "tourism": "information"
      }
    },
    {
      "type": "node",
      "id": 503552317,
      "lat": 51.5064449,
      "lon": -0.1456241,
      "tags": {
        "addr:city": "London",
        "addr:postcode": "W1J 7BN",
        "addr:street": "Half Moon Street",
        "building": "yes",
        "contact:google_plus": "https://plus.google.com/+HiltonLondonGreenPark",
        "email": "reservations.greenpark@hilton.com",
        "name": "Hilton London Green Park",
        "operator": "Hilton",
        "phone": "020 7629 7522",
        "rooms": "163",
        "smoking": "no",
        "stars": "4",
        "start_date": "1999",
        "tourism": "hotel",
        "website": "http://www3.hilton.com/en/hotels/united-kingdom/hilton-london-green-park-LONGPTW/index.html?WT.mc_id=zELWAKN0EMEA1HI2DMH3LocalSearch4DGGenericx6LONGPTW",
        "wheelchair": "yes"
      }
    },
    {
      "type": "node",
      "id": 503553591,
      "lat": 51.506367,
      "lon": -0.145224,
      "tags": {
        "addr:city": "London",
        "addr:housenumber": "7-12",
        "addr:street": "Half Moon Street",
        "fhrs:confidence_management": "0",
        "fhrs:hygiene": "0",
        "fhrs:id": "410916",
        "fhrs:local_authority_id": "00107/0008/0/000",
        "fhrs:rating": "5",
        "fhrs:rating_date": "2012-05-18",
        "fhrs:structural": "5",
        "name": "Flemings Mayfair",
        "postal_code": "W1J 7BH",
        "source:addr": "FSA Food Hygiene Ratings Database",
        "source:postcode": "FSA Food Hygiene Ratings Database",
        "tourism": "hotel",
        "wikidata": "Q16992229"
      }
    },
    {
      "type": "node",
      "id": 503554223,
      "lat": 51.5071829,
      "lon": -0.1460304,
      "tags": {
        "name": "The Washington",
        "tourism": "hotel"
      }
    },
    {
      "type": "node",
      "id": 503561408,
      "lat": 51.5019767,
      "lon": -0.1561265,
      "tags": {
        "addr:city": "London",
        "addr:housenumber": "40",
        "addr:street": "Wilton Place",
        "fhrs:id": "413460",
        "fhrs:local_authority_id": "01202/0040/0/000",
        "fhrs:rating": "5",
        "fhrs:rating_date": "2013-09-05",
        "name": "The Berkeley",
        "postal_code": "SW1X 7RL",
        "source:addr": "FSA Food Hygiene Ratings Database",
        "source:postcode": "FSA Food Hygiene Ratings Database",
        "tourism": "hotel"
      }
    },
    {
      "type": "node",
      "id": 505081216,
      "lat": 51.507698,
      "lon": -0.109996,
      "tags": {
        "created_by": "Mapzen POI Collector 1.0 Beta",
        "tourism": "information"
      }
    },
    {
      "type": "node",
      "id": 505082830,
      "lat": 51.507733,
      "lon": -0.109063,
      "tags": {
        "created_by": "Mapzen POI Collector 1.0 Beta",
        "description": "Maps and local events",
        "tourism": "information"
      }
    },
    {
      "type": "node",
      "id": 506327773,
      "lat": 51.5027478,
      "lon": -0.1159222,
      "tags": {
        "name": "London Duck Tours",
        "tourism": "attraction"
      }
    },
    {
      "type": "node",
      "id": 510786764,
      "lat": 51.5235257,
      "lon": -0.1329563,
      "tags": {
        "name": "Petrie Museum of Egyptian Archeology",
        "tourism": "museum",
        "website": "http://www.ucl.ac.uk/museums/petrie",
        "wheelchair": "limited",
        "wikidata": "Q2002512"
      }
    },
    {
      "type": "node",
      "id": 512765226,
      "lat": 51.4725645,
      "lon": -0.1043197,
      "tags": {
        "information": "map",
        "name": "Park Map",
        "tourism": "information"
      }
    },
    {
      "type": "node",
      "id": 519952302,
      "lat": 51.4974196,
      "lon": 0.182368,
      "tags": {
        "description": "wireframe",
        "landmark": "statue",
        "name": "The Diver",
        "tourism": "artwork"
      }
    },
    {
      "type": "node",
      "id": 522920312,
      "lat": 51.5104407,
      "lon": -0.1864167,
      "tags": {
        "name": "Royal Bayswater Hostel",
        "tourism": "hostel"
      }
    },
    {
      "type": "node",
      "id": 530625281,
      "lat": 51.4551209,
      "lon": -0.3400294,
      "tags": {
        "addr:housenumber": "198",
        "addr:postcode": "TW2 7BA",
        "addr:street": "Whitton Road",
        "fhrs:id": "354066",
        "name": "London Marriott Hotel Twickenham",
        "source:addr": "FHRS Open Data",
        "tourism": "hotel"
      }
    },
    {
      "type": "node",
      "id": 534694428,
      "lat": 51.5103647,
      "lon": -0.1873077,
      "tags": {
        "operator": "Hilton",
        "tourism": "hotel"
      }
    },
    {
      "type": "node",
      "id": 535958717,
      "lat": 51.5134188,
      "lon": -0.1922516,
      "tags": {
        "name": "Pembridge Palace",
        "tourism": "hotel"
      }
    },
    {
      "type": "node",
      "id": 537643396,
      "lat": 51.5346973,
      "lon": -0.1550808,
      "tags": {
        "attraction": "animal",
        "name": "Lowland anoa",
        "species": "Bubalus depressicornis",
        "tourism": "attraction",
        "zoo": "enclosure"
      }
    },
    {
      "type": "node",
      "id": 537643627,
      "lat": 51.5352637,
      "lon": -0.152026,
      "tags": {
        "attraction": "animal",
        "name": "Hyacinth Macaw",
        "operator": "Zoological Society of London (ZSL)",
        "species": "Anodorhynchus hyacinthinus",
        "tourism": "attraction",
        "zoo": "enclosure"
      }
    },
    {
      "type": "node",
      "id": 537643639,
      "lat": 51.5350877,
      "lon": -0.1519628,
      "tags": {
        "attraction": "animal",
        "name": "Military macaw",
        "operator": "Zoological Society of London (ZSL)",
        "species": "Ara militaris",
        "tourism": "attraction",
        "zoo": "enclosure"
      }
    },
    {
      "type": "node",
      "id": 537861749,
      "lat": 51.5335715,
      "lon": -0.1518476,
      "tags": {
        "attraction": "animal",
        "name": "Scarlet Ibis",
        "species": "Eudocimus ruber",
        "tourism": "attraction",
        "zoo": "enclosure"
      }
    },
    {
      "type": "node",
      "id": 537861758,
      "lat": 51.5344338,
      "lon": -0.1519514,
      "tags": {
        "attraction": "animal",
        "name": "Golden-headed lion tamarin",
        "species": "Leontopithicus chrysomelas",
        "tourism": "attraction",
        "zoo": "enclosure"
      }
    },
    {
      "type": "node",
      "id": 537861797,
      "lat": 51.536439,
      "lon": -0.1547905,
      "tags": {
        "attraction": "animal",
        "name": "Red-ruffed lemur",
        "operator": "Zoological Society of London (ZSL)",
        "species": "Varecia rubra",
        "tourism": "attraction",
        "zoo": "enclosure"
      }
    },
    {
      "type": "node",
      "id": 538090933,
      "lat": 51.4922912,
      "lon": -0.1216814,
      "tags": {
        "name": "Boat skeletons",
        "tourism": "artwork"
      }
    },
    {
      "type": "node",
      "id": 538090934,
      "lat": 51.492176,
      "lon": -0.1217192,
      "tags": {
        "name": "Boat skeletons",
        "tourism": "artwork"
      }
    },
    {
      "type": "node",
      "id": 538090935,
      "lat": 51.4934719,
      "lon": -0.1210993,
      "tags": {
        "name": "Copper Boat Prow",
        "tourism": "artwork",
        "wheelchair": "yes"
      }
    },
    {
      "type": "node",
      "id": 538090937,
      "lat": 51.5003582,
      "lon": -0.1200415,
      "tags": {
        "tourism": "viewpoint",
        "viewpoint": "telescope"
      }
    },
    {
      "type": "node",
      "id": 538090938,
      "lat": 51.496109,
      "lon": -0.1208733,
      "tags": {
        "tourism": "viewpoint",
        "viewpoint": "telescope"
      }
    },
    {
      "type": "node",
      "id": 538839538,
      "lat": 51.535011,
      "lon": -0.1553421,
      "tags": {
        "attraction": "animal",
        "name": "African birds",
        "tourism": "attraction",
        "zoo": "enclosure"
      }
    },
    {
      "type": "node",
      "id": 540155542,
      "lat": 51.5011089,
      "lon": -0.0936329,
      "tags": {
        "addr:housenumber": "200",
        "addr:street": "Borough High Street",
        "name": "London City Hotel",
        "phone": "02073780415",
        "postal_code": "SE1 1JX",
        "tourism": "hotel",
        "website": "http://www.london-city-hotel.co.uk"
      }
    },
    {
      "type": "node",
      "id": 540335148,
      "lat": 51.6591306,
      "lon": -0.1996331,
      "tags": {
        "board_type": "notice",
        "information": "board",
        "name": "London LOOP",
        "tourism": "information"
      }
    },
    {
      "type": "node",
      "id": 549146398,
      "lat": 51.5201714,
      "lon": -0.108254,
      "tags": {
        "addr:housenumber": "34/35",
        "addr:postcode": "EC1N 8DX",
        "addr:street": "Hatton Garden",
        "name": "WW Gallery",
        "phone": "+44 7531342128",
        "source": "leaflet",
        "tourism": "gallery",
        "website": "http://wilsonwilliamsgallery.com"
      }
    },
    {
      "type": "node",
      "id": 550378005,
      "lat": 51.50387,
      "lon": -0.0652386,
      "tags": {
        "artist_name": "Wendy Taylor",
        "artwork_type": "sculpture",
        "name": "Voyager (2001)",
        "tourism": "artwork"
      }
    },
    {
      "type": "node",
      "id": 552965194,
      "lat": 51.5360898,
      "lon": -0.1464514,
      "tags": {
        "addr:housenumber": "127-129",
        "addr:street": "Parkway",
        "name": "York & Albany",
        "postal_code": "NW1 7PS",
        "tourism": "hotel",
        "website": "http://www.gordonramsay.com/yorkandalbanyhotel"
      }
    },
    {
      "type": "node",
      "id": 559055914,
      "lat": 51.516314,
      "lon": -0.4529878,
      "tags": {
        "tourism": "viewpoint"
      }
    },
    {
      "type": "node",
      "id": 560040794,
      "lat": 51.5422262,
      "lon": -0.1473387,
      "tags": {
        "name": "Cyberdog",
        "shop": "clothes",
        "tourism": "attraction",
        "wheelchair": "limited"
      }
    },
    {
      "type": "node",
      "id": 560042342,
      "lat": 51.4933513,
      "lon": -0.1690087,
      "tags": {
        "name": "Michelin House",
        "tourism": "attraction",
        "wikipedia": "en:Michelin House"
      }
    },
    {
      "type": "node",
      "id": 560082139,
      "lat": 51.4920004,
      "lon": -0.0313979,
      "tags": {
        "artist_name": "Chris Marshall;Stephen Lewis",
        "artwork_type": "sculpture",
        "name": "Circumsphere",
        "start_date": "1998-09",
        "tourism": "artwork"
      }
    },
    {
      "type": "node",
      "id": 562872586,
      "lat": 51.5018026,
      "lon": 0.0091997,
      "tags": {
        "artwork_type": "sculpture",
        "tourism": "artwork"
      }
    },
    {
      "type": "node",
      "id": 564799299,
      "lat": 51.4820118,
      "lon": -0.1735255,
      "tags": {
        "artwork_type": "statue",
        "name": "James McNeal Whistler",
        "start_date": "1903",
        "tourism": "artwork"
      }
    },
    {
      "type": "node",
      "id": 564811788,
      "lat": 51.483244,
      "lon": -0.1678773,
      "tags": {
        "artist_name": "F Derwent Wood RA",
        "artwork_type": "statue",
        "tourism": "artwork"
      }
    },
    {
      "type": "node",
      "id": 564862644,
      "lat": 51.485573,
      "lon": -0.134444,
      "tags": {
        "artist_name": "Andrew Wallace",
        "artwork_type": "sculpture",
        "name": "The Helmsman",
        "start_date": "1996",
        "tourism": "artwork"
      }
    },
    {
      "type": "node",
      "id": 564862647,
      "lat": 51.4856623,
      "lon": -0.1333946,
      "tags": {
        "artwork_type": "statue",
        "historic": "memorial",
        "memorial:type": "statue",
        "name": "William Huskisson",
        "subject": "William Huskisson",
        "tourism": "artwork"
      }
    },
    {
      "type": "node",
      "id": 564862650,
      "lat": 51.4858669,
      "lon": -0.1323326,
      "tags": {
        "artist_name": "Paul Mason",
        "artwork_type": "sculpture",
        "name": "River Cut Tide",
        "start_date": "2002",
        "tourism": "artwork"
      }
    },
    {
      "type": "node",
      "id": 564862653,
      "lat": 51.4861235,
      "lon": -0.1315086,
      "tags": {
        "artist_name": "Paul Mason",
        "artwork_type": "sculpture",
        "name": "Tyburn Thames",
        "start_date": "2002",
        "tourism": "artwork"
      }
    },
    {
      "type": "node",
      "id": 565594680,
      "lat": 51.486404,
      "lon": -0.0006793,
      "tags": {
        "artist_name": "Wendy Taylor CBE",
        "artwork_type": "sculpture",
        "name": "anchor iron",
        "start_date": "2004",
        "tourism": "artwork"
      }
    },
    {
      "type": "node",
      "id": 569700954,
      "lat": 51.5394603,
      "lon": -0.1606721,
      "tags": {
        "tourism": "viewpoint"
      }
    },
    {
      "type": "node",
      "id": 571836758,
      "lat": 51.510372,
      "lon": -0.1300878,
      "tags": {
        "artwork_type": "sculpture",
        "name": "Shakespeare",
        "start_date": "1874",
        "subject:wikidata": "Q692",
        "tourism": "artwork",
        "wikidata": "Q17984957"
      }
    },
    {
      "type": "node",
      "id": 581143041,
      "lat": 51.5819202,
      "lon": -0.1497693,
      "tags": {
        "name": "Highgate Wood Information Centre",
        "tourism": "information"
      }
    },