{
  "version": 0.6,
  "generator": "Overpass API",
  "osm3s": {
    "timestamp_osm_base": "2017-05-16T14:47:06Z",
    "timestamp_areas_base": "2017-05-16T13:18:06Z",
    "copyright": "The data included in this document is from www.openstreetmap.org. The data is made available under ODbL."
  },
  "elements": [
    {
      "type": "node",
      "id": 21392280,
      "lat": 51.5154842,
      "lon": -0.1049292,
      "tags": {
        "addr:housenumber": "80",
        "addr:postcode": "EC4A 4BL",
        "addr:street": "Farringdon Street",
        "amenity": "pub",
        "brewery": "Shepherd Neame",
        "fhrs:id": "293860",
        "name": "Hoop and Grapes",
        "source:addr": "FHRS Open Data",
        "source:name": "FHRS Open Data",
        "toilets": "yes",
        "toilets:access": "customers"
      }
    },
    {
      "type": "node",
      "id": 21685700,
      "lat": 51.5168252,
      "lon": -0.1041836,
      "tags": {
        "amenity": "atm",
        "name": "Tesco"
      }
    },
    {
      "type": "node",
      "id": 21686579,
      "lat": 51.5154029,
      "lon": -0.1043348,
      "tags": {
        "addr:housenumber": "20",
        "addr:postcode": "EC4A 4AB",
        "addr:street": "Farringdon Street",
        "amenity": "pub",
        "fhrs:id": "293856",
        "name": "White Swan",
        "source:addr": "FHRS Open Data",
        "website": "http://www.thewhiteswanfarringdon.co.uk/",
        "wheelchair": "yes"
      }
    },
    {
      "type": "node",
      "id": 21693791,
      "lat": 51.5150736,
      "lon": -0.0997325,
      "tags": {
        "amenity": "pub",
        "name": "The Saint",
        "toilets": "yes",
        "toilets:access": "customers"
      }
    },
    {
      "type": "node",
      "id": 25473538,
      "lat": 51.5096824,
      "lon": -0.0785077,
      "tags": {
        "addr:housenumber": "15",
        "addr:postcode": "EC3N 4AA",
        "addr:street": "Trinity Square",
        "amenity": "pub",
        "foot": "yes",
        "name": "The Liberty Bounds",
        "operator": "JD Weatherspoon",
        "toilets": "yes",
        "toilets:access": "customers"
      }
    },
    {
      "type": "node",
      "id": 25474641,
      "lat": 51.5197763,
      "lon": -0.0937556,
      "tags": {
        "amenity": "cinema",
        "name": "Barbican Centre (Cinema)"
      }
    },
    {
      "type": "node",
      "id": 25475187,
      "lat": 51.5114165,
      "lon": -0.0776978,
      "tags": {
        "addr:city": "London",
        "addr:housenumber": "48",
        "addr:postcode": "EC3N 2AP",
        "addr:street": "Crutched Friars",
        "amenity": "pub",
        "fhrs:authority": "City of London Corporation",
        "fhrs:id": "294974",
        "fhrs:local_authority_id": "PI/000019691",
        "name": "The Cheshire Cheese",
        "outdoor_seating": "no",
        "source:addr": "FHRS Open Data",
        "wheelchair": "yes"
      }
    },
    {
      "type": "node",
      "id": 25496840,
      "lat": 51.516754,
      "lon": -0.110371,
      "tags": {
        "amenity": "pub",
        "name": "The Castle",
        "operator": "Young's"
      }
    },
    {
      "type": "node",
      "id": 26659113,
      "lat": 51.5175867,
      "lon": -0.1087596,
      "tags": {
        "addr:city": "London",
        "addr:housenumber": "33",
        "addr:postcode": "EC1N 2HT",
        "addr:street": "Holborn",
        "fhrs:id": "294696",
        "name": "Sainsbury's Local",
        "operator": "Sainsburys",
        "shop": "convenience"
      }
    },
    {
      "type": "node",
      "id": 32921722,
      "lat": 51.5137876,
      "lon": -0.1092189,
      "tags": {
        "amenity": "pub",
        "name": "Serjeants"
      }
    },
    {
      "type": "node",
      "id": 32921723,
      "lat": 51.5136388,
      "lon": -0.1090351,
      "tags": {
        "amenity": "parking",
        "created_by": "JOSM"
      }
    },
    {
      "type": "node",
      "id": 116097320,
      "lat": 51.5149285,
      "lon": -0.0778751,
      "tags": {
        "addr:housenumber": "133",
        "addr:postcode": "EC3A 7BX",
        "addr:street": "Houndsditch",
        "amenity": "pub",
        "name": "The Alice",
        "website": "www.alicelondon.co.uk"
      }
    },
    {
      "type": "node",
      "id": 116097730,
      "lat": 51.5148281,
      "lon": -0.0781193,
      "tags": {
        "addr:housenumber": "31",
        "addr:postcode": "EC3A 7DB",
        "addr:street": "Houndsditch",
        "amenity": "pub",
        "name": "The Lion Houndsditch"
      }
    },
    {
      "type": "node",
      "id": 180391012,
      "lat": 51.5188735,
      "lon": -0.0785998,
      "tags": {
        "amenity": "cafe",
        "name": "Starbucks"
      }
    },
    {
      "type": "node",
      "id": 248074287,
      "lat": 51.5124286,
      "lon": -0.1040162,
      "tags": {
        "addr:city": "London",
        "addr:housenumber": "30",
        "addr:postcode": "EC4V 6BJ",
        "addr:street": "New Bridge Street",
        "amenity": "pub",
        "fhrs:authority": "City of London Corporation",
        "fhrs:id": "294123",
        "fhrs:local_authority_id": "PI/000009491",
        "name": "El Vino",
        "operator": "El Vino Co Ltd",
        "toilets": "yes",
        "toilets:access": "customers",
        "website": "http://elvino.co.uk/bars/blackfriars/"
      }
    },
    {
      "type": "node",
      "id": 249471729,
      "lat": 51.5196707,
      "lon": -0.0804526,
      "tags": {
        "name": "Broadgate Venus",
        "tourism": "artwork"
      }
    },
    {
      "type": "node",
      "id": 251952329,
      "lat": 51.5113514,
      "lon": -0.1040952,
      "tags": {
        "amenity": "fountain"
      }
    },
    {
      "type": "node",
      "id": 255396262,
      "lat": 51.5178198,
      "lon": -0.1090776,
      "tags": {
        "amenity": "bank",
        "created_by": "JOSM",
        "name": "HSBC",
        "wheelchair": "yes"
      }
    },
    {
      "type": "node",
      "id": 255396266,
      "lat": 51.5146474,
      "lon": -0.0981098,
      "tags": {
        "amenity": "bank",
        "name": "Citi"
      }
    },
    {
      "type": "node",
      "id": 255396267,
      "lat": 51.514642,
      "lon": -0.0982288,
      "tags": {
        "amenity": "bank",
        "atm": "yes",
        "name": "RBS"
      }
    },
    {
      "type": "node",
      "id": 259246781,
      "lat": 51.5158593,
      "lon": -0.1024019,
      "tags": {
        "amenity": "pub",
        "name": "Firefly"
      }
    },
    {
      "type": "node",
      "id": 259247147,
      "lat": 51.5140162,
      "lon": -0.1021419,
      "tags": {
        "addr:city": "London",
        "addr:housenumber": "42",
        "addr:postcode": "EC4M 7DE",
        "addr:street": "Ludgate Hill",
        "amenity": "pub",
        "fhrs:id": "294430",
        "name": "Ye Olde London",
        "source:addr": "Food Hygiene Rating Scheme open data"
      }
    },
    {
      "type": "node",
      "id": 259247148,
      "lat": 51.5140437,
      "lon": -0.1023097,
      "tags": {
        "amenity": "pub",
        "name": "All Bar One",
        "toilets": "yes",
        "toilets:access": "customers"
      }
    },
    {
      "type": "node",
      "id": 259248888,
      "lat": 51.5108908,
      "lon": -0.0811851,
      "tags": {
        "amenity": "pub",
        "name": "Agenda",
        "wheelchair": "no"
      }
    },
    {
      "type": "node",
      "id": 259253467,
      "lat": 51.5110137,
      "lon": -0.0847662,
      "tags": {
        "amenity": "pub",
        "name": "The Ship",
        "toilets": "yes",
        "toilets:access": "customers"
      }
    },
    {
      "type": "node",
      "id": 263679615,
      "lat": 51.5130453,
      "lon": -0.0912975,
      "tags": {
        "amenity": "pub",
        "name": "The Green Man",
        "operator": "Wetherspoons",
        "toilets": "yes",
        "toilets:access": "customers"
      }
    },
    {
      "type": "node",
      "id": 264904727,
      "lat": 51.5184112,
      "lon": -0.101134,
      "tags": {
        "amenity": "car_sharing",
        "capacity": "1",
        "operator": "Streetcar",
        "source": "WebSite"
      }
    },
    {
      "type": "node",
      "id": 264904749,
      "lat": 51.5205,
      "lon": -0.0949,
      "tags": {
        "amenity": "car_sharing",
        "capacity": "1",
        "operator": "Streetcar",
        "source": "WebSite"
      }
    },
    {
      "type": "node",
      "id": 266560384,
      "lat": 51.5093933,
      "lon": -0.0916244,
      "tags": {
        "amenity": "pub",
        "name": "The Banker",
        "toilets": "yes",
        "toilets:access": "customers"
      }
    },
    {
      "type": "node",
      "id": 276920899,
      "lat": 51.5157129,
      "lon": -0.0894453,
      "tags": {
        "amenity": "pub",
        "name": "The Gable",
        "toilets": "yes",
        "toilets:access": "customers"
      }
    },
    {
      "type": "node",
      "id": 277906484,
      "lat": 51.5132004,
      "lon": -0.0871776,
      "tags": {
        "addr:housenumber": "24",
        "addr:postcode": "EC3V 3ND",
        "addr:street": "Cornhill",
        "amenity": "pub",
        "fhrs:id": "293810",
        "name": "Forge",
        "old_name": "Abacus",
        "website": "http://www.forgedinlondon.com/"
      }
    },
    {
      "type": "node",
      "id": 280546902,
      "lat": 51.5116974,
      "lon": -0.0819854,
      "tags": {
        "addr:city": "London",
        "addr:housenumber": "135",
        "addr:postcode": "EC3M 5DJ",
        "addr:street": "Fenchurch Street",
        "amenity": "bank",
        "atm": "yes",
        "name": "Nationwide",
        "opening_hours": "Mo-Fr 08:30 - 16:30;Sa-Su off",
        "phone": "‎+44 845 266 1284",
        "website": "http://www.nationwide.co.uk"
      }
    },
    {
      "type": "node",
      "id": 280547869,
      "lat": 51.512255,
      "lon": -0.0800589,
      "tags": {
        "amenity": "bank",
        "atm": "yes",
        "name": "Barclays",
        "operator": "Barclays Bank PLC"
      }
    },
    {
      "type": "node",
      "id": 280547870,
      "lat": 51.5120445,
      "lon": -0.0794831,
      "tags": {
        "amenity": "bank",
        "atm": "yes",
        "name": "HSBC"
      }
    },
    {
      "type": "node",
      "id": 288045288,
      "lat": 51.5142284,
      "lon": -0.0742511,
      "tags": {
        "amenity": "pub",
        "name": "Hoop and Grapes",
        "toilets": "yes",
        "toilets:access": "customers"
      }
    },
    {
      "type": "node",
      "id": 289830212,
      "lat": 51.5132258,
      "lon": -0.0867502,
      "tags": {
        "addr:city": "London",
        "addr:housenumber": "28",
        "addr:postcode": "EC3V 3ND",
        "addr:street": "Cornhill",
        "amenity": "pub",
        "fhrs:id": "293811",
        "name": "Pitcher and Piano",
        "source:addr": "FHRS Open Data",
        "toilets": "yes",
        "toilets:access": "customers"
      }
    },
    {
      "type": "node",
      "id": 291746120,
      "lat": 51.5189603,
      "lon": -0.0860074,
      "tags": {
        "amenity": "pub",
        "cuisine": "British",
        "food": "yes",
        "name": "Bangers",
        "real_ale": "yes",
        "toilets": "yes",
        "toilets:access": "customers"
      }
    },
    {
      "type": "node",
      "id": 291747934,
      "lat": 51.5190246,
      "lon": -0.0831631,
      "tags": {
        "amenity": "post_office",
        "created_by": "Potlatch 0.10b"
      }
    },
    {
      "type": "node",
      "id": 291753815,
      "lat": 51.5198112,
      "lon": -0.0853164,
      "tags": {
        "addr:housenumber": "36",
        "addr:postcode": "EC2M 2TE",
        "addr:street": "Wilson Street",
        "amenity": "pub",
        "name": "The Fleetwood",
        "opening_hours": "Mo-Fr 11:00-23:00",
        "operator": "Fuller's"
      }
    },
    {
      "type": "node",
      "id": 291753929,
      "lat": 51.5174357,
      "lon": -0.0833132,
      "tags": {
        "addr:housenumber": "15",
        "addr:postcode": "EC2M 7NX",
        "addr:street": "Liverpool Street",
        "amenity": "pub",
        "name": "The Railway Tavern"
      }
    },
    {
      "type": "node",
      "id": 291754220,
      "lat": 51.5189552,
      "lon": -0.0836417,
      "tags": {
        "amenity": "pub",
        "name": "The Botanist"
      }
    },
    {
      "type": "node",
      "id": 292705417,
      "lat": 51.5102756,
      "lon": -0.0862062,
      "tags": {
        "addr:city": "London",
        "addr:housenumber": "1",
        "addr:postcode": "EC3R 8BG",
        "addr:street": "Monument Street",
        "amenity": "pub",
        "fhrs:authority": "City of London Corporation",
        "fhrs:id": "842915",
        "fhrs:local_authority_id": "PI/000027767",
        "name": "The Hydrant",
        "operator": "Fuller's",
        "phone": "+44 20 7623 5446",
        "website": "http://www.thehydrant.co.uk/"
      }
    },
    {
      "type": "node",
      "id": 292705418,
      "lat": 51.5107157,
      "lon": -0.0860166,
      "tags": {
        "addr:city": "London",
        "addr:housenumber": "2B",
        "addr:postcode": "EC3M 1AB",
        "addr:street": "Eastcheap",
        "amenity": "pub",
        "fhrs:authority": "City of London Corporation",
        "fhrs:id": "293847",
        "fhrs:local_authority_id": "PI/000005075",
        "name": "Corney and Barrow",
        "opening_hours": "Mo-Fr 07:30-23:00",
        "phone": "‎+44 20 7929 3220",
        "website": "http://www.corney-barrow.co.uk"
      }
    },
    {
      "type": "node",
      "id": 294874302,
      "lat": 51.5116653,
      "lon": -0.0899837,
      "tags": {
        "amenity": "pub",
        "name": "All Bar One"
      }
    },
    {
      "type": "node",
      "id": 295975599,
      "lat": 51.5147749,
      "lon": -0.0989569,
      "tags": {
        "addr:city": "London",
        "addr:housenumber": "10",
        "addr:postcode": "EC4M 7DY",
        "addr:street": "Paternoster Square",
        "amenity": "pub",
        "fhrs:authority": "City of London Corporation",
        "fhrs:id": "294380",
        "fhrs:local_authority_id": "PI/000013698",
        "name": "Corney and Barrow",
        "source:addr": "FHRS Open Data",
        "toilets": "yes",
        "toilets:access": "customers"
      }
    },
    {
      "type": "node",
      "id": 295975600,
      "lat": 51.5126226,
      "lon": -0.087495,
      "tags": {
        "name": "Sainsbury's Local",
        "shop": "convenience"
      }
    },
    {
      "type": "node",
      "id": 295975602,
      "lat": 51.5126631,
      "lon": -0.084714,
      "tags": {
        "addr:housenumber": "7/12",
        "addr:street": "Gracechurch Street",
        "amenity": "pub",
        "brand": "Wetherspoons",
        "food": "yes",
        "internet_access": "wlan",
        "name": "The Crosse Keys",
        "note": "Closed Saturday evenings and Sundays. Building is a former bank, with impressive interior.",
        "operator": "JD Wetherspoon",
        "postcode": "EC3V 0DR",
        "real_ale": "yes"
      }
    },
    {
      "type": "node",
      "id": 295975604,
      "lat": 51.5128086,
      "lon": -0.0842713,
      "tags": {
        "amenity": "pub",
        "brewery": "Greene King",
        "name": "The New Moon"
      }
    },
    {
      "type": "node",
      "id": 295975606,
      "lat": 51.5127202,
      "lon": -0.0793332,
      "tags": {
        "amenity": "pub",
        "name": "Willy's Wine Bar",
        "toilets": "yes",
        "toilets:access": "customers"
      }
    },
    {
      "type": "node",
      "id": 295975610,
      "lat": 51.5137136,
      "lon": -0.0757885,
      "tags": {
        "amenity": "restaurant",
        "cuisine": "asia",
        "name": "Itsu"
      }
    },
    {
      "type": "node",
      "id": 295975928,
      "lat": 51.513355,
      "lon": -0.0908549,
      "tags": {
        "amenity": "restaurant",
        "level": "7",
        "name": "Coq d'Argent",
        "note": "Rooftop Garden",
        "outdoor_seating": "yes"
      }
    },
    {
      "type": "node",
      "id": 295979629,
      "lat": 51.513604,
      "lon": -0.0737842,
      "tags": {
        "amenity": "pub",
        "name": "Duke of Somerset"
      }
    },
    {
      "type": "node",
      "id": 295979630,
      "lat": 51.5139021,
      "lon": -0.0746201,
      "tags": {
        "addr:housenumber": "1",
        "addr:street": "Little Somerset Street",
        "amenity": "pub",
        "name": "Still & Star",
        "postal_code": "E1 8AH",
        "website": "http://www.stillandstar.dial.pipex.com/"
      }
    },
    {
      "type": "node",
      "id": 296610104,
      "lat": 51.5132649,
      "lon": -0.0925806,
      "tags": {
        "amenity": "pub",
        "name": "Golden Fleece",
        "operator": "Greene King"
      }
    },
    {
      "type": "node",
      "id": 296610106,
      "lat": 51.5133665,
      "lon": -0.0925606,
      "tags": {
        "name": "Robert Dyas",
        "shop": "doityourself"
      }
    },
    {
      "type": "node",
      "id": 296610112,
      "lat": 51.5122519,
      "lon": -0.0928038,
      "tags": {
        "amenity": "pub",
        "name": "Sugar Loaf",
        "old_name": "O'Neills"
      }
    },
    {
      "type": "node",
      "id": 296610125,
      "lat": 51.5117645,
      "lon": -0.0929468,
      "tags": {
        "amenity": "fast_food",
        "cuisine": "pizza",
        "name": "Domino's Pizza"
      }
    },
    {
      "type": "node",
      "id": 296610128,
      "lat": 51.5117911,
      "lon": -0.0931398,
      "tags": {
        "amenity": "restaurant",
        "name": "Wagamama",
        "phone": "0207 248 5766",
        "postcode": "EC4V 2BH",
        "website": "http://www.wagamama.com/locations/showlocation/550"
      }
    },
    {
      "type": "node",
      "id": 296610596,
      "lat": 51.5119197,
      "lon": -0.0846722,
      "tags": {
        "addr:city": "London",
        "addr:housenumber": "168",
        "addr:postcode": "EC3M 6DE",
        "addr:street": "Fenchurch Street",
        "level": "0",
        "name": "Marks and Spencer",
        "shop": "department_store",
        "website": "http://www.marksandspencer.com",
        "wheelchair": "yes"
      }
    },
    {
      "type": "node",
      "id": 296614811,
      "lat": 51.5097312,
      "lon": -0.0802923,
      "tags": {
        "addr:street": "Byward Street",
        "amenity": "restaurant",
        "name": "Pizza Express"
      }
    },
    {
      "type": "node",
      "id": 296614817,
      "lat": 51.5108903,
      "lon": -0.0808223,
      "tags": {
        "addr:city": "London",
        "addr:housenumber": "Minster Court",
        "addr:postcode": "EC3R 7PP",
        "addr:street": "Mincing Lane",
        "amenity": "pub",
        "name": "Balls Brothers",
        "phone": "+4420 7283 2838",
        "website": "http://www.ballsbrothers.co.uk/venues/minster-exchange/"
      }
    },
    {
      "type": "node",
      "id": 296614820,
      "lat": 51.5111253,
      "lon": -0.079329,
      "tags": {
        "addr:city": "London",
        "addr:housenumber": "14",
        "addr:postcode": "EC3R 7NA",
        "addr:street": "New London Street",
        "amenity": "restaurant",
        "fhrs:authority": "City of London Corporation",
        "fhrs:id": "926273",
        "fhrs:local_authority_id": "PI/000030310",
        "name": "Roma",
        "source:addr": "FHRS Open Data"
      }
    },
    {
      "type": "node",
      "id": 299521880,
      "lat": 51.5176909,
      "lon": -0.0799927,
      "tags": {
        "addr:housenumber": "182",
        "addr:street": "Bishopsgate",
        "amenity": "police",
        "name": "Bishopsgate Police Station"
      }
    },
    {
      "type": "node",
      "id": 299521884,
      "lat": 51.5183131,
      "lon": -0.0793378,
      "tags": {
        "amenity": "bank",
        "atm": "yes",
        "name": "NatWest"
      }
    },
    {
      "type": "node",
      "id": 302013654,
      "lat": 51.516962,
      "lon": -0.0803573,
      "tags": {
        "amenity": "pub",
        "created_by": "JOSM",
        "name": "The Bull"
      }
    },
    {
      "type": "node",
      "id": 302820466,
      "lat": 51.518667,
      "lon": -0.079255,
      "tags": {
        "amenity": "college",
        "name": "Bishopsgate Institute, The Bishopsgate Foundation"
      }
    },
    {
      "type": "node",
      "id": 304872390,
      "lat": 51.5163795,
      "lon": -0.0826453,
      "tags": {
        "addr:city": "London",
        "addr:housenumber": "27",
        "addr:postcode": "EC2M 1RP",
        "addr:street": "Wormwood Street",
        "amenity": "pub",
        "fhrs:authority": "City of London Corporation",
        "fhrs:id": "295001",
        "fhrs:local_authority_id": "PI/000019783",
        "name": "The Kings Arms",
        "operator": "Greene King",
        "source:addr": "FHRS Open Data"
      }
    },
    {
      "type": "node",
      "id": 306134799,
      "lat": 51.5154232,
      "lon": -0.0841375,
      "tags": {
        "shop": "kiosk"
      }
    },
    {
      "type": "node",
      "id": 306135216,
      "lat": 51.5164477,
      "lon": -0.0833714,
      "tags": {
        "amenity": "fast_food",
        "cuisine": "sushi",
        "name": "Wasabi",
        "takeaway": "yes"
      }
    },
    {
      "type": "node",
      "id": 306135269,
      "lat": 51.5163973,
      "lon": -0.0828757,
      "tags": {
        "amenity": "bank",
        "atm": "yes",
        "name": "Barclays",
        "operator": "Barclays Bank PLC"
      }
    },
    {
      "type": "node",
      "id": 306135270,
      "lat": 51.5162901,
      "lon": -0.0821143,
      "tags": {
        "addr:city": "London",
        "addr:housenumber": "22-24",
        "addr:postcode": "EC2M 1RQ",
        "addr:street": "Wormwood Street",
        "addr:unit": "Retail Unit 2",
        "amenity": "cafe",
        "fhrs:authority": "City of London Corporation",
        "fhrs:id": "294292",
        "fhrs:local_authority_id": "PI/000012571",
        "name": "Caffè Nero",
        "source:addr": "FHRS Open Data",
        "ssid": "BT Openzone",
        "wifi": "paid"
      }
    },
    {
      "type": "node",
      "id": 306135577,
      "lat": 51.5148995,
      "lon": -0.0855383,
      "tags": {
        "amenity": "pub",
        "name": "The Phoenix"
      }
    },
    {
      "type": "node",
      "id": 306135753,
      "lat": 51.5149059,
      "lon": -0.0853962,
      "tags": {
        "amenity": "atm"
      }
    },
    {
      "type": "node",
      "id": 306136163,
      "lat": 51.5149426,
      "lon": -0.0853103,
      "tags": {
        "addr:housenumber": "120",
        "addr:postcode": "EC2N 1AR",
        "addr:street": "Old Broad Street",
        "name": "Tesco Express",
        "shop": "convenience"
      }
    },
    {
      "type": "node",
      "id": 306395720,
      "lat": 51.5180196,
      "lon": -0.0860778,
      "tags": {
        "amenity": "drinking_water"
      }
    },
    {
      "type": "node",
      "id": 306439374,
      "lat": 51.5176344,
      "lon": -0.0865794,
      "tags": {
        "amenity": "pub",
        "created_by": "Potlatch 0.10e",
        "name": "The Pavilion"
      }
    },
    {
      "type": "node",
      "id": 306478017,
      "lat": 51.5156499,
      "lon": -0.0887528,
      "tags": {
        "amenity": "pub",
        "name": "The Telegraph"
      }
    },
    {
      "type": "node",
      "id": 306680347,
      "lat": 51.5130744,
      "lon": -0.1003656,
      "tags": {
        "addr:housename": "36 Carter Lane, London",
        "addr:postcode": "EC4V 5AB",
        "fhrs:id": "293714",
        "name": "YHA London St Pauls",
        "tourism": "hostel"
      }
    },
    {
      "type": "node",
      "id": 311974562,
      "lat": 51.5184743,
      "lon": -0.0834325,
      "tags": {
        "amenity": "pub",
        "name": "Brasserie Rocque",
        "toilets": "yes",
        "toilets:access": "customers"
      }
    },
    {
      "type": "node",
      "id": 314923100,
      "lat": 51.51655,
      "lon": -0.0890475,
      "tags": {
        "amenity": "post_office",
        "created_by": "Potlatch 0.10f"
      }
    },
    {
      "type": "node",
      "id": 316763478,
      "lat": 51.5150683,
      "lon": -0.0983225,
      "tags": {
        "addr:city": "London",
        "addr:housenumber": "2-4",
        "addr:postcode": "EC4M 7DZ",
        "addr:street": "Queens Head Passage",
        "amenity": "pub",
        "fhrs:authority": "City of London Corporation",
        "fhrs:id": "294590",
        "fhrs:local_authority_id": "PI/000016099",
        "name": "The Paternoster",
        "source:addr": "FHRS Open Data",
        "wheelchair": "limited"
      }
    },
    {
      "type": "node",
      "id": 316763495,
      "lat": 51.5145419,
      "lon": -0.0948116,
      "tags": {
        "amenity": "pub",
        "name": "The Livery - not there ",
        "toilets": "yes",
        "toilets:access": "customers"
      }
    },
    {
      "type": "node",
      "id": 316763576,
      "lat": 51.5153585,
      "lon": -0.0956641,
      "tags": {
        "amenity": "bar",
        "name": "Balls Brothers",
        "toilets": "yes",
        "toilets:access": "customers"
      }
    },
    {
      "type": "node",
      "id": 319984690,
      "lat": 51.5132553,
      "lon": -0.0947404,
      "tags": {
        "amenity": "restaurant",
        "created_by": "Merkaartor 0.12",
        "name": "Ping Pong"
      }
    },
    {
      "type": "node",
      "id": 319984691,
      "lat": 51.5131505,
      "lon": -0.095051,
      "tags": {
        "amenity": "restaurant",
        "created_by": "Merkaartor 0.12",
        "name": "Chez Gerard"
      }
    },
    {
      "type": "node",
      "id": 319984698,
      "lat": 51.5118712,
      "lon": -0.0937202,
      "tags": {
        "amenity": "restaurant",
        "name": "Thai Square"
      }
    },
    {
      "type": "node",
      "id": 319984731,
      "lat": 51.5104577,
      "lon": -0.0880136,
      "tags": {
        "address": "Number 6, Martin Lane",
        "amenity": "pub",
        "name": "The Old Wine Shades"
      }
    },
    {
      "type": "node",
      "id": 338463488,
      "lat": 51.5181518,
      "lon": -0.1127518,
      "tags": {
        "amenity": "cafe",
        "name": "Pret A Manger",
        "website": "http://www.pret.com"
      }
    },
    {
      "type": "node",
      "id": 338463494,
      "lat": 51.5180538,
      "lon": -0.1119482,
      "tags": {
        "amenity": "atm",
        "count": "2",
        "operator": "NatWest"
      }
    },
    {
      "type": "node",
      "id": 338472530,
      "lat": 51.5178734,
      "lon": -0.1102592,
      "tags": {
        "amenity": "restaurant",
        "cuisine": "japanese",
        "name": "Wasabi Sushi"
      }
    },
    {
      "type": "node",
      "id": 338472551,
      "lat": 51.5169781,
      "lon": -0.1076198,
      "tags": {
        "amenity": "restaurant",
        "created_by": "Potlatch 0.10f",
        "name": "Pizza Express"
      }
    },
    {
      "type": "node",
      "id": 338505169,
      "lat": 51.5165567,
      "lon": -0.1110982,
      "tags": {
        "amenity": "restaurant",
        "name": "The Chancery"
      }
    },
    {
      "type": "node",
      "id": 344513448,
      "lat": 51.5125803,
      "lon": -0.1045256,
      "tags": {
        "amenity": "post_office",
        "name": "Post & Go",
        "postal_code": "EC4",
        "ref": "EC4 425",
        "staffed": "no"
      }
    },
    {
      "type": "node",
      "id": 347541055,
      "lat": 51.5184112,
      "lon": -0.0784692,
      "tags": {
        "amenity": "pub",
        "created_by": "Potlatch 0.10f",
        "name": "Williams"
      }
    },
    {
      "type": "node",
      "id": 350370447,
      "lat": 51.5154661,
      "lon": -0.1064782,
      "tags": {
        "addr:housename": "Little Hill House",
        "addr:postcode": "EC4A 3JR",
        "amenity": "library",
        "name": "Shoe Lane Library"
      }
    },
    {
      "type": "node",
      "id": 350370448,
      "lat": 51.51525,
      "lon": -0.1064245,
      "tags": {
        "amenity": "pub",
        "name": "Kanaloa"
      }
    },
    {
      "type": "node",
      "id": 350404874,
      "lat": 51.513225,
      "lon": -0.1044064,
      "tags": {
        "addr:city": "London",
        "addr:housenumber": "1",
        "addr:postcode": "EC4V 6AP",
        "addr:street": "Bridewell Place",
        "amenity": "pub",
        "fhrs:authority": "City of London Corporation",
        "fhrs:id": "293690",
        "fhrs:local_authority_id": "PI/000001571",
        "name": "St Bride's Tavern",
        "source:addr": "FHRS Open Data"
      }
    },
    {
      "type": "node",
      "id": 350404884,
      "lat": 51.5129044,
      "lon": -0.1039479,
      "tags": {
        "amenity": "bank",
        "atm": "yes",
        "name": "RBS"
      }
    },
    {
      "type": "node",
      "id": 350404890,
      "lat": 51.5131771,
      "lon": -0.1039267,
      "tags": {
        "addr:city": "London",
        "addr:housenumber": "90",
        "addr:postcode": "EC4V 6JJ",
        "addr:street": "New Bridge Street",
        "amenity": "restaurant",
        "fhrs:authority": "City of London Corporation",
        "fhrs:id": "294564",
        "fhrs:local_authority_id": "PI/000015775",
        "name": "Hare & Tortoise"
      }
    },
    {
      "type": "node",
      "id": 350404899,
      "lat": 51.5132503,
      "lon": -0.1039269,
      "tags": {
        "addr:city": "London",
        "addr:housenumber": "100",
        "addr:postcode": "EC4V 6JJ",
        "addr:street": "New Bridge Street",
        "amenity": "pharmacy",
        "branch": "London New Bridge Street",
        "brand": "Boots",
        "contact:phone": "+44 20 7329 6702",
        "contact:website": "http://www.boots.com/stores/731-london-new-bridge-street-ec4v-6jj",
        "dispensing": "yes",
        "fhrs:authority": "City of London Corporation",
        "fhrs:id": "294120",
        "fhrs:inspectiondate": "2015-06-10",
        "fhrs:local_authority_id": "PI/000009458",
        "fhrs:rating": "5",
        "medical_supply": "yes",
        "name": "Boots",
        "operator": "Boots UK Limited",
        "ref": "731",
        "shop": "chemist",
        "source:addr": "FHRS Open Data",
        "toilets:wheelchair": "no",
        "wheelchair": "no"
      }
    },
    {
      "type": "node",
      "id": 350404906,
      "lat": 51.5135766,
      "lon": -0.1039438,
      "tags": {
        "addr:city": "London",
        "addr:housenumber": "101",
        "addr:postcode": "EC4V 6JJ",
        "addr:street": "New Bridge Street",
        "amenity": "cafe",
        "contact:phone": "+44 20 7932 5268",
        "contact:website": "http://www.pret.co.uk/",
        "delivery": "yes",
        "fhrs:authority": "City of London Corporation",
        "fhrs:id": "295237",
        "fhrs:local_authority_id": "PI/000102410",
        "internet_access": "wlan",
        "name": "Pret A Manger",
        "opening_hours": "Mo-Fr 06:30-20:00",
        "takeaway": "yes",
        "wheelchair": "yes"
      }
    },
    {
      "type": "node",
      "id": 350437645,
      "lat": 51.516203,
      "lon": -0.1093416,
      "tags": {
        "amenity": "pub",
        "name": "White Swan"
      }
    },
    {
      "type": "node",
      "id": 350439485,
      "lat": 51.5159232,
      "lon": -0.1082178,
      "tags": {
        "amenity": "pub",
        "name": "Corney & Barrow",
        "toilets": "yes",
        "toilets:access": "customers"
      }
    },
    {
      "type": "node",
      "id": 350439502,
      "lat": 51.5156445,
      "lon": -0.108535,
      "tags": {
        "amenity": "restaurant",
        "name": "Natural Kitchen"
      }
    },
    {
      "type": "node",
      "id": 353279772,
      "lat": 51.5118054,
      "lon": -0.1021253,
      "tags": {
        "amenity": "conference_centre",
        "name": "The Mermaid conference centre"
      }
    },
    {
      "type": "node",
      "id": 355416859,
      "lat": 51.5138943,
      "lon": -0.102602,
      "tags": {
        "amenity": "pub",
        "name": "James"
      }
    },
    {
      "type": "node",
      "id": 355416895,
      "lat": 51.5186659,
      "lon": -0.1013074,
      "tags": {
        "amenity": "parking",
        "name": "Smithfield Car Park"
      }
    },
    {
      "type": "node",
      "id": 355416909,
      "lat": 51.5185662,
      "lon": -0.1002516,
      "tags": {
        "alt_name": "Club Gascon",
        "amenity": "bar",
        "name": "Cellar Gascon",
        "wheelchair": "no"
      }
    },
    {
      "type": "node",
      "id": 355416935,
      "lat": 51.5198059,
      "lon": -0.0979314,
      "tags": {
        "amenity": "cafe",
        "name": "EAT",
        "wheelchair": "yes"
      }
    },
    {
      "type": "node",
      "id": 360948936,
      "lat": 51.5134541,
      "lon": -0.0892956,
      "tags": {
        "amenity": "atm",
        "operator": "NatWest"
      }
    },
    {
      "type": "node",
      "id": 364698444,
      "lat": 51.5127558,
      "lon": -0.0970953,
      "tags": {
        "addr:housenumber": "2-6",
        "addr:postcode": "EC4M 6XX",
        "addr:street": "Cannon Street",
        "amenity": "pub",
        "name": "The Wine Tun",
        "opening_hours": "Mo-Th 09:00-23:00;Fr 09:00-24:00",
        "toilets": "yes",
        "toilets:access": "customers"
      }
    },
    {
      "type": "node",
      "id": 366073061,
      "lat": 51.5135603,
      "lon": -0.0789666,
      "tags": {
        "amenity": "pub",
        "name": "The Old Tea Warehouse",
        "owner": "Greene King",
        "toilets": "yes",
        "toilets:access": "customers"
      }
    },
    {
      "type": "node",
      "id": 366073062,
      "lat": 51.5160739,
      "lon": -0.0796848,
      "tags": {
        "amenity": "atm",
        "operator": "Natwest"
      }
    },
    {
      "type": "node",
      "id": 366073245,
      "lat": 51.517437,
      "lon": -0.080797,
      "tags": {
        "amenity": "pub",
        "level": "0",
        "name": "Hamilton Hall"
      }
    },
    {
      "type": "node",
      "id": 368044073,
      "lat": 51.5133205,
      "lon": -0.0999854,
      "tags": {
        "amenity": "restaurant",
        "name": "Yo! Sushi"
      }
    },
    {
      "type": "node",
      "id": 368044078,
      "lat": 51.5133984,
      "lon": -0.1001859,
      "tags": {
        "amenity": "restaurant",
        "name": "Coppa Club"
      }
    },
    {
      "type": "node",
      "id": 368044118,
      "lat": 51.5118468,
      "lon": -0.1000953,
      "tags": {
        "amenity": "parking",
        "capacity": "233",
        "capacity:disabled": "5",
        "covered": "yes",
        "fee": "yes",
        "maxheight": "1.85",
        "name": "Baynard House Car Park",
        "operator": "City of London Corporation",
        "website": "http://www.cityoflondon.gov.uk/services/transport-and-streets/parking/where-to-park/car-parks/Pages/Baynard-House-car-park.aspx"
      }
    },
    {
      "type": "node",
      "id": 369119279,
      "lat": 51.5143323,
      "lon": -0.0802462,
      "tags": {
        "amenity": "cafe",
        "name": "Konditor & Cook",
        "source": "Local knowledge"
      }
    },
    {
      "type": "node",
      "id": 369119280,
      "lat": 51.51452,
      "lon": -0.0800751,
      "tags": {
        "addr:housename": "The Sterling",
        "addr:housenumber": "30",
        "addr:postcode": "EC3A 8BF",
        "addr:street": "St. Mary Axe",
        "amenity": "pub",
        "email": "thesterling@ballsbrothers.co.uk",
        "name": "The Sterling Bar & Kitchen",
        "phone": "02079293641",
        "source": "Local knowledge",
        "toilets": "yes",
        "toilets:access": "customers",
        "website": "http://www.thesterlingbar.co.uk/"
      }
    },
    {
      "type": "node",
      "id": 369119282,
      "lat": 51.5149794,
      "lon": -0.0789736,
      "tags": {
        "addr:housenumber": "23",
        "addr:street": "Bevis Marks",
        "amenity": "fast_food",
        "name": "Subway",
        "source": "Local knowledge"
      }
    },
    {
      "type": "node",
      "id": 369119283,
      "lat": 51.5147516,
      "lon": -0.0790524,
      "tags": {
        "amenity": "cafe",
        "name": "Chaplins Deli",
        "source": "Local knowledge"
      }
    },
    {
      "type": "node",
      "id": 369119285,
      "lat": 51.5146603,
      "lon": -0.081032,
      "tags": {
        "amenity": "cafe",
        "name": "Pret A Manger",
        "source": "Local knowledge"
      }
    },
    {
      "type": "node",
      "id": 369119286,
      "lat": 51.5147902,
      "lon": -0.0809501,
      "tags": {
        "amenity": "pub",
        "name": "Slug and Lettuce",
        "source": "Local knowledge",
        "toilets": "yes",
        "toilets:access": "customers"
      }
    },
    {
      "type": "node",
      "id": 369119289,
      "lat": 51.5159507,
      "lon": -0.078716,
      "tags": {
        "addr:city": "London",
        "addr:housenumber": "9",
        "addr:postcode": "E1 7DJ",
        "addr:street": "Cutler Street",
        "amenity": "restaurant",
        "cuisine": "turkish",
        "name": "Haz Premier Place",
        "opening_hours": "Mo-Su 11:30-00:00",
        "phone": "‎+44 20 7929 7925",
        "source": "Local knowledge",
        "website": "http://www.hazrestaurant.co.uk"
      }
    },
    {
      "type": "node",
      "id": 369119292,
      "lat": 51.5150989,
      "lon": -0.0806039,
      "tags": {
        "amenity": "cafe",
        "name": "Eat",
        "source": "Local knowledge"
      }
    },
    {
      "type": "node",
      "id": 369119293,
      "lat": 51.5134223,
      "lon": -0.0798538,
      "tags": {
        "amenity": "cafe",
        "name": "Caffè Nero",
        "source": "Local knowledge"
      }
    },
    {
      "type": "node",
      "id": 369121147,
      "lat": 51.5126149,
      "lon": -0.0805681,
      "tags": {
        "amenity": "cafe",
        "name": "Costa",
        "source": "Local knowledge"
      }
    },
    {
      "type": "node",
      "id": 369121150,
      "lat": 51.5127492,
      "lon": -0.0812625,
      "tags": {
        "amenity": "cafe",
        "name": "Pret A Manger",
        "source": "Local knowledge"
      }
    },
    {
      "type": "node",
      "id": 369121154,
      "lat": 51.5127065,
      "lon": -0.0836318,
      "tags": {
        "addr:city": "London",
        "addr:housenumber": "20-22",
        "addr:postcode": "EC3V 1LR",
        "addr:street": "Leadenhall Market",
        "amenity": "restaurant",
        "name": "Pizza Express",
        "source": "Local knowledge",
        "url": "www.pizzaexpress.com/visit-a-restaurant/restaurant/london-leadenhall-market"
      }
    },
    {
      "type": "node",
      "id": 369957259,
      "lat": 51.5122568,
      "lon": -0.1016371,
      "tags": {
        "addr:city": "London",
        "addr:housenumber": "148",
        "addr:postcode": "EC4V 4BY",
        "addr:street": "Queen Victoria Street",
        "amenity": "pub",
        "fhrs:id": "653538",
        "name": "Rudds",
        "source:addr": "Food Hygiene Rating Scheme open data",
        "toilets": "yes",
        "toilets:access": "customers"
      }
    },
    {
      "type": "node",
      "id": 376347925,
      "lat": 51.5103747,
      "lon": -0.0961265,
      "tags": {
        "amenity": "pub",
        "name": "The Samuel Pepys",
        "toilets": "yes",
        "toilets:access": "customers"
      }
    },
    {
      "type": "node",
      "id": 377494063,
      "lat": 51.5154281,
      "lon": -0.0771006,
      "tags": {
        "amenity": "atm",
        "operator": "Post Office Ltd"
      }
    },
    {
      "type": "node",
      "id": 377498323,
      "lat": 51.5152572,
      "lon": -0.0765117,
      "tags": {
        "addr:city": "London",
        "addr:country": "GB",
        "amenity": "motorcycle_parking",
        "name": "Motorcycle parking"
      }
    },
    {
      "type": "node",
      "id": 377499499,
      "lat": 51.515435,
      "lon": -0.075591,
      "tags": {
        "amenity": "restaurant",
        "cuisine": "japanese",
        "name": "Asta"
      }
    },
    {
      "type": "node",
      "id": 377500818,
      "lat": 51.5149918,
      "lon": -0.0803276,
      "tags": {
        "amenity": "bar",
        "name": "Balls Brothers"
      }
    },
    {
      "type": "node",
      "id": 377502618,
      "lat": 51.5168332,
      "lon": -0.0799452,
      "tags": {
        "amenity": "fast_food",
        "cuisine": "sandwich",
        "name": "Subway"
      }
    },
    {
      "type": "node",
      "id": 377508719,
      "lat": 51.5170101,
      "lon": -0.080646,
      "tags": {
        "name": "Specsavers",
        "shop": "optician"
      }
    },
    {
      "type": "node",
      "id": 385707542,
      "lat": 51.5144243,
      "lon": -0.1008266,
      "tags": {
        "name": "Vidal Sasoon",
        "shop": "hairdresser"
      }
    },
    {
      "type": "node",
      "id": 390059201,
      "lat": 51.519567,
      "lon": -0.0943839,
      "tags": {
        "amenity": "fountain"
      }
    },
    {
      "type": "node",
      "id": 390059202,
      "lat": 51.5195007,
      "lon": -0.0940946,
      "tags": {
        "amenity": "fountain"
      }
    },
    {
      "type": "node",
      "id": 390059203,
      "lat": 51.5195323,
      "lon": -0.0942408,
      "tags": {
        "amenity": "fountain"
      }
    },
    {
      "type": "node",
      "id": 390059204,
      "lat": 51.5194671,
      "lon": -0.0939514,
      "tags": {
        "amenity": "fountain"
      }
    },
    {
      "type": "node",
      "id": 390059205,
      "lat": 51.5194342,
      "lon": -0.0938097,
      "tags": {
        "amenity": "fountain"
      }
    },
    {
      "type": "node",
      "id": 390073172,
      "lat": 51.5211627,
      "lon": -0.097114,
      "tags": {
        "name": "Barbican Laundrette",
        "shop": "laundry"
      }
    },
    {
      "type": "node",
      "id": 390073174,
      "lat": 51.520574,
      "lon": -0.0977172,
      "tags": {
        "addr:city": "London",
        "addr:housenumber": "131",
        "addr:postcode": "EC1A 4JQ",
        "addr:street": "Aldersgate Street",
        "branch": "Barbican Express",
        "name": "Tesco Express",
        "opening_hours": "Mo-Su 06:00-24:00",
        "shop": "convenience",
        "wheelchair": "yes"
      }
    },
    {
      "type": "node",
      "id": 390073204,
      "lat": 51.5194875,
      "lon": -0.093437,
      "tags": {
        "addr:postcode": "EC2Y 8DS",
        "addr:street": "Silk Street",
        "amenity": "cafe",
        "name": "Waterside Café",
        "wheelchair": "yes"
      }
    },
    {
      "type": "node",
      "id": 390073213,
      "lat": 51.5184986,
      "lon": -0.0934828,
      "tags": {
        "amenity": "kindergarten",
        "layer": "-1",
        "level": "-1",
        "name": "Newpark Childcare Centre",
        "note": "This is below the pedestrian area. It's possibly not accurate to describe it as underground, its appears to be the same level as the ground floor of the Postern, with the pedestrian area built over the top."
      }
    },
    {
      "type": "node",
      "id": 429346224,
      "lat": 51.5158403,
      "lon": -0.0792759,
      "tags": {
        "amenity": "pub",
        "name": "All Bar One"
      }
    },
    {
      "type": "node",
      "id": 429346232,
      "lat": 51.5147958,
      "lon": -0.078649,
      "tags": {
        "addr:housenumber": "19",
        "addr:street": "Bevis Marks",
        "amenity": "restaurant",
        "name": "James Cochran"
      }
    },
    {
      "type": "node",
      "id": 439447912,
      "lat": 51.5150684,
      "lon": -0.082593,
      "tags": {
        "name": "BK News",
        "shop": "newsagent"
      }
    },
    {
      "type": "node",
      "id": 441950765,
      "lat": 51.5125127,
      "lon": -0.09878,
      "tags": {
        "addr:housenumber": "29-33",
        "addr:postcode": "EC4V 5BH",
        "addr:street": "Knightrider Street",
        "amenity": "pub",
        "name": "The Centre Page",
        "phone": "02072363614",
        "toilets": "yes",
        "toilets:access": "customers",
        "website": "http://www.thecentrepage.co.uk"
      }
    },
    {
      "type": "node",
      "id": 441950767,
      "lat": 51.5116579,
      "lon": -0.0982012,
      "tags": {
        "amenity": "place_of_worship",
        "denomination": "salvation_army",
        "name": "The Salvation Army International HQ",
        "religion": "christian"
      }
    },
    {
      "type": "node",
      "id": 441958984,
      "lat": 51.5132037,
      "lon": -0.0971893,
      "tags": {
        "artist_name": "Georg Ehrlich",
        "name": "The Young Lovers",
        "tourism": "artwork"
      }
    },
    {
      "type": "node",
      "id": 441966150,
      "lat": 51.5151432,
      "lon": -0.0987366,
      "tags": {
        "addr:city": "London",
        "addr:housenumber": "2",
        "addr:postcode": "EC4M 7DX",
        "addr:street": "Paternoster Square",
        "amenity": "pharmacy",
        "branch": "London Paternoster Square",
        "brand": "Boots",
        "contact:phone": "+44 20 7236 6181",
        "contact:website": "http://www.boots.com/stores/793-london-paternoster-square-ec4m-7dx",
        "dispensing": "yes",
        "fhrs:authority": "City of London Corporation",
        "fhrs:id": "294300",
        "fhrs:local_authority_id": "PI/000012853",
        "medical_supply": "yes",
        "name": "Boots",
        "opening_hours": "Mo-Fr 07:30-19:00",
        "operator": "Boots UK Limited",
        "ref": "793",
        "shop": "chemist",
        "source": "survey",
        "source:addr": "FHRS Open Data",
        "wheelchair": "yes"
      }
    },
    {
      "type": "node",
      "id": 442373387,
      "lat": 51.514496,
      "lon": -0.0956528,
      "tags": {
        "amenity": "bank",
        "name": "Halifax"
      }
    },
    {
      "type": "node",
      "id": 462004135,
      "lat": 51.5175953,
      "lon": -0.1088286,
      "tags": {
        "amenity": "atm",
        "operator": "Sainsbury"
      }
    },
    {
      "type": "node",
      "id": 470247702,
      "lat": 51.5202933,
      "lon": -0.0811838,
      "tags": {
        "amenity": "restaurant",
        "name": "Piccolino"
      }
    },
    {
      "type": "node",
      "id": 470247703,
      "lat": 51.519894,
      "lon": -0.0800515,
      "tags": {
        "amenity": "bar",
        "name": "The Salt Point Bar"
      }
    },
    {
      "type": "node",
      "id": 470247704,
      "lat": 51.5198861,
      "lon": -0.0818169,
      "tags": {
        "amenity": "pub",
        "former_name": "The Broadgate Exchange",
        "name": "The White Horse"
      }
    },
    {
      "type": "node",
      "id": 470628776,
      "lat": 51.514321,
      "lon": -0.0838784,
      "tags": {
        "amenity": "bank",
        "name": "Lloyds"
      }
    },
    {
      "type": "node",
      "id": 471488466,
      "lat": 51.5126013,
      "lon": -0.0814514,
      "tags": {
        "amenity": "fast_food",
        "cuisine": "asian",
        "name": "Itsu"
      }
    },
    {
      "type": "node",
      "id": 471488483,
      "lat": 51.5122096,
      "lon": -0.0825119,
      "tags": {
        "craft": "shoemaker;key_cutter",
        "name": "City Slickers",
        "shop": "dry_cleaning"
      }
    },
    {
      "type": "node",
      "id": 471488490,
      "lat": 51.5120298,
      "lon": -0.0820738,
      "tags": {
        "amenity": "cafe",
        "name": "Pret A Manger",
        "wheelchair": "yes"
      }
    },
    {
      "type": "node",
      "id": 471488491,
      "lat": 51.5118127,
      "lon": -0.0820271,
      "tags": {
        "amenity": "betting_shop",
        "name": "Coral",
        "shop": "bookmaker"
      }
    },
    {
      "type": "node",
      "id": 471488492,
      "lat": 51.5117851,
      "lon": -0.0820271,
      "tags": {
        "amenity": "cafe",
        "cuisine": "sandwich",
        "name": "Claudio's"
      }
    },
    {
      "type": "node",
      "id": 471488493,
      "lat": 51.5116436,
      "lon": -0.0822566,
      "tags": {
        "addr:city": "London",
        "addr:housenumber": "138-140",
        "addr:postcode": "EC3M 6BL",
        "addr:street": "Fenchurch Street",
        "amenity": "pharmacy",
        "branch": "London Fenchurch Street",
        "contact:website": "http://www.boots.com/stores/1608-london-fenchurch-street-ec3m-6bl",
        "dispensing": "yes",
        "fhrs:authority": "City of London Corporation",
        "fhrs:id": "293868",
        "fhrs:local_authority_id": "PI/000005415",
        "name": "Boots",
        "operator": "Boots UK Limited",
        "ref": "1608",
        "shop": "chemist",
        "source:addr": "FHRS Open Data",
        "wheelchair": "no"
      }
    },
    {
      "type": "node",
      "id": 471488494,
      "lat": 51.5117298,
      "lon": -0.0818238,
      "tags": {
        "addr:city": "London",
        "addr:housenumber": "135",
        "addr:postcode": "EC3M 5DJ",
        "addr:street": "Fenchurch Street",
        "name": "Space.NK.apothecary",
        "opening_hours": "Mo-Fr 08:30-18:30; Sa-Su off",
        "phone": "‎+44 20 7929 5675",
        "shop": "cosmetics",
        "website": "http://www.spacenk.co.uk"
      }
    },
    {
      "type": "node",
      "id": 471488495,
      "lat": 51.5117656,
      "lon": -0.0816157,
      "tags": {
        "name": "Austin Reed",
        "note": "Approximate location",
        "shop": "clothes"
      }
    },
    {
      "type": "node",
      "id": 471488496,
      "lat": 51.5118322,
      "lon": -0.081432,
      "tags": {
        "name": "Mappin & Webb",
        "shop": "jewelry"
      }
    },
    {
      "type": "node",
      "id": 471488497,
      "lat": 51.5127702,
      "lon": -0.0809609,
      "tags": {
        "amenity": "bar",
        "name": "Corney & Barrow"
      }
    },
    {
      "type": "node",
      "id": 472754017,
      "lat": 51.5148965,
      "lon": -0.0782269,
      "tags": {
        "addr:housenumber": "34-36",
        "amenity": "restaurant",
        "name": "Fora Restaurant"
      }
    },
    {
      "type": "node",
      "id": 472754033,
      "lat": 51.5147843,
      "lon": -0.0780473,
      "tags": {
        "amenity": "betting_shop",
        "name": "William Hill",
        "shop": "bookmaker"
      }
    },
    {
      "type": "node",
      "id": 473261115,
      "lat": 51.510035,
      "lon": -0.0901008,
      "tags": {
        "amenity": "fire_station",
        "name": "Dowgate Fire Station"
      }
    },
    {
      "type": "node",
      "id": 475396911,
      "lat": 51.5172007,
      "lon": -0.0889348,
      "tags": {
        "name": "Vodafone",
        "shop": "mobile_phone"
      }
    },
    {
      "type": "node",
      "id": 475396915,
      "lat": 51.5168732,
      "lon": -0.0873668,
      "tags": {
        "name": "Waterstones",
        "shop": "books"
      }
    },
    {
      "type": "node",
      "id": 475396917,
      "lat": 51.5161737,
      "lon": -0.0839837,
      "tags": {
        "amenity": "bank",
        "name": "HSBC",
        "phone": "08457 404 404"
      }
    },
    {
      "type": "node",
      "id": 475396920,
      "lat": 51.516236,
      "lon": -0.0839612,
      "tags": {
        "amenity": "atm",
        "operator": "HSBC"
      }
    },
    {
      "type": "node",
      "id": 475396921,
      "lat": 51.5172754,
      "lon": -0.0830283,
      "tags": {
        "amenity": "pub",
        "name": "Lord Aberconway",
        "postcode": "EC2M 1QT",
        "source": "very bad GPS lock + (geolocated photo)",
        "toilets": "yes",
        "toilets:access": "customers"
      }
    },
    {
      "type": "node",
      "id": 475868738,
      "lat": 51.5172127,
      "lon": -0.1049731,
      "tags": {
        "addr:city": "London",
        "addr:street": "Farringdon Street",
        "layer": "-1",
        "name": "winemakers club",
        "note": "Under Holborn Viaduct",
        "shop": "alcohol",
        "website": "http://thewinemakersclub.co.uk/"
      }
    },
    {
      "type": "node",
      "id": 476025055,
      "lat": 51.518822,
      "lon": -0.0792215,
      "tags": {
        "amenity": "restaurant",
        "cuisine": "pizza",
        "name": "Pizza Express"
      }
    },
    {
      "type": "node",
      "id": 476033502,
      "lat": 51.5174595,
      "lon": -0.0940927,
      "tags": {
        "addr:housenumber": "125",
        "addr:street": "Alban Gate",
        "amenity": "restaurant",
        "cuisine": "pizza",
        "level": "1",
        "name": "Pizza Express",
        "phone": "020 7600 8880",
        "postcode": "EC2Y 5AS"
      }
    },
    {
      "type": "node",
      "id": 479121690,
      "lat": 51.5136766,
      "lon": -0.1011574,
      "tags": {
        "addr:housenumber": "3",
        "addr:street": "Ludgate Hill",
        "name": "London Souvenirs",
        "postal_code": "EC4M 7AA",
        "shop": "gift"
      }
    },
    {
      "type": "node",
      "id": 479121697,
      "lat": 51.5136135,
      "lon": -0.1009187,
      "tags": {
        "amenity": "restaurant",
        "atm": "yes",
        "name": "The Happenstance"
      }
    },
    {
      "type": "node",
      "id": 479151676,
      "lat": 51.5145526,
      "lon": -0.0987287,
      "tags": {
        "amenity": "cafe",
        "name": "Starbucks",
        "website": "http://www.starbucks.co.uk"
      }
    },
    {
      "type": "node",
      "id": 479151681,
      "lat": 51.5139856,
      "lon": -0.1004245,
      "tags": {
        "name": "Marks & Spencer Simply Food",
        "postal_code": "EC4M 8EH",
        "shop": "convenience"
      }
    },
    {
      "type": "node",
      "id": 488443243,
      "lat": 51.5141779,
      "lon": -0.1000039,
      "tags": {
        "amenity": "bank",
        "name": "NatWest",
        "website": "http://www.natwest.com",
        "wheelchair": "yes"
      }
    },
    {
      "type": "node",
      "id": 488443269,
      "lat": 51.5141138,
      "lon": -0.1002013,
      "tags": {
        "amenity": "cafe",
        "name": "Starbucks",
        "website": "http://www.starbucks.co.uk"
      }
    },
    {
      "type": "node",
      "id": 488443291,
      "lat": 51.514242,
      "lon": -0.0996863,
      "tags": {
        "name": "Blacks",
        "shop": "outdoor"
      }
    },
    {
      "type": "node",
      "id": 505769332,
      "lat": 51.5139036,
      "lon": -0.1045738,
      "tags": {
        "addr:city": "London",
        "addr:housenumber": "2-3",
        "addr:postcode": "EC4V 6AA",
        "addr:street": "New Bridge Road",
        "amenity": "pub",
        "brewery": "Charles Wells",
        "fhrs:authority": "City of London Corporation",
        "fhrs:id": "295204",
        "fhrs:inspectiondate": "2016-01-18",
        "fhrs:local_authority_id": "PI/000101375",
        "fhrs:rating": "1",
        "name": "The Albion",
        "operator": "Young & Co",
        "website": "http://www.thealbionlondon.co.uk/",
        "wheelchair": "limited"
      }
    },
    {
      "type": "node",
      "id": 534907516,
      "lat": 51.5149324,
      "lon": -0.0977564,
      "tags": {
        "addr:city": "London",
        "addr:housenumber": "30",
        "addr:postcode": "EC1A 7HL",
        "addr:street": "Newgate Street",
        "amenity": "cafe",
        "cuisine": "coffee_shop",
        "fhrs:authority": "City of London Corporation",
        "fhrs:id": "295232",
        "fhrs:inspectiondate": "2015-11-19",
        "fhrs:local_authority_id": "PI/000102190",
        "fhrs:rating": "1",
        "name": "Caffè Nero",
        "source:addr": "FHRS Open Data",
        "website": "http://www.caffenero.com",
        "wheelchair": "yes"
      }
    },
    {
      "type": "node",
      "id": 560717334,
      "lat": 51.5135459,
      "lon": -0.0915278,
      "tags": {
        "name": "Tesco Metro",
        "operator": "Tesco",
        "shop": "supermarket"
      }
    },
    {
      "type": "node",
      "id": 560751240,
      "lat": 51.5128882,
      "lon": -0.0839276,
      "tags": {
        "FIXME": "Approximate location.",
        "addr:housenumber": "29,30",
        "addr:street": "Leadenhall Market",
        "amenity": "fast_food",
        "cuisine": "sandwich",
        "name": "Cheese"
      }
    },
    {
      "type": "node",
      "id": 560751244,
      "lat": 51.5132469,
      "lon": -0.0946381,
      "tags": {
        "FIXME": "Approximate location.",
        "addr:housenumber": "73A",
        "addr:street": "Watling Street",
        "amenity": "fast_food",
        "cuisine": "sandwich",
        "name": "Spianata"
      }
    },
    {
      "type": "node",
      "id": 560751263,
      "lat": 51.5191504,
      "lon": -0.0881431,
      "tags": {
        "FIXME": "Approximate location.",
        "addr:housenumber": "12",
        "addr:street": "Moorfields",
        "amenity": "fast_food",
        "cuisine": "sandwich",
        "name": "Spianata"
      }
    },
    {
      "type": "node",
      "id": 565439071,
      "lat": 51.5162441,
      "lon": -0.108227,
      "tags": {
        "amenity": "restaurant",
        "cuisine": "japanese",
        "name": "Itsu",
        "payment:american_express": "yes",
        "takeaway": "yes"
      }
    },
    {
      "type": "node",
      "id": 565439416,
      "lat": 51.5143713,
      "lon": -0.1096614,
      "tags": {
        "amenity": "cafe",
        "name": "Salade",
        "postal_code": "EC4A 1BT"
      }
    },
    {
      "type": "node",
      "id": 567015547,
      "lat": 51.5178254,
      "lon": -0.0806455,
      "tags": {
        "amenity": "cafe",
        "name": "Caffe Nero"
      }
    },
    {
      "type": "node",
      "id": 567015646,
      "lat": 51.5176371,
      "lon": -0.0808327,
      "tags": {
        "amenity": "cafe",
        "name": "Starbucks",
        "note": "outside station"
      }
    },
    {
      "type": "node",
      "id": 567015764,
      "lat": 51.5175271,
      "lon": -0.080849,
      "tags": {
        "amenity": "fast_food",
        "name": "West Cornwall Pasty Co",
        "note": "outside station"
      }
    },
    {
      "type": "node",
      "id": 567016125,
      "lat": 51.517509,
      "lon": -0.0802149,
      "tags": {
        "amenity": "cafe",
        "cuisine": "sandwich",
        "name": "EAT"
      }
    },
    {
      "type": "node",
      "id": 567843761,
      "lat": 51.5158586,
      "lon": -0.0798521,
      "tags": {
        "addr:city": "London",
        "addr:housenumber": "59-60",
        "addr:postcode": "EC3A 7BE",
        "addr:street": "Houndsditch",
        "amenity": "pharmacy",
        "branch": "London Houndsditch",
        "brand": "Boots",
        "contact:phone": "+44 20 7929 1779",
        "contact:website": "http://www.boots.com/stores/734-london-houndsditch-ec3a-7be",
        "dispensing": "yes",
        "fhrs:authority": "City of London Corporation",
        "fhrs:id": "293991",
        "fhrs:local_authority_id": "PI/000007150",
        "medical_supply": "yes",
        "name": "Boots",
        "opening_hours": "Mo-Fr 07:30-18:30",
        "operator": "Boots UK Limited",
        "ref": "734",
        "shop": "chemist",
        "source:addr": "FHRS Open Data"
      }
    },
    {
      "type": "node",
      "id": 571287151,
      "lat": 51.515944,
      "lon": -0.0841022,
      "tags": {
        "amenity": "fast_food",
        "name": "Pret a Manger"
      }
    },
    {
      "type": "node",
      "id": 571287279,
      "lat": 51.5166495,
      "lon": -0.0833103,
      "tags": {
        "name": "Hackett London",
        "shop": "clothes"
      }
    },
    {
      "type": "node",
      "id": 571287544,
      "lat": 51.5172444,
      "lon": -0.0833387,
      "tags": {
        "addr:full": "80 Old Broad Street London EC2",
        "addr:street": "Old Broad Street",
        "amenity": "fast_food",
        "name": "Eat",
        "postal_code": "EC2",
        "source": "http://www.eat.co.uk/pages/where_17.shtml"
      }
    },
    {
      "type": "node",
      "id": 577559476,
      "lat": 51.5188693,
      "lon": -0.078343,
      "tags": {
        "amenity": "pub",
        "description": "Bar & Lounge",
        "name": "Be at One"
      }
    },
    {
      "type": "node",
      "id": 577559480,
      "lat": 51.5185302,
      "lon": -0.0793065,
      "tags": {
        "amenity": "bank",
        "name": "Santander"
      }
    },
    {
      "type": "node",
      "id": 577559481,
      "lat": 51.5185946,
      "lon": -0.0792994,
      "tags": {
        "name": "T. M. Lewin",
        "shop": "department_store"
      }
    },
    {
      "type": "node",
      "id": 591974938,
      "lat": 51.510076,
      "lon": -0.086329,
      "tags": {
        "amenity": "pub",
        "name": "The Monument",
        "toilets": "yes",
        "toilets:access": "customers"
      }
    },
    {
      "type": "node",
      "id": 592029659,
      "lat": 51.5098985,
      "lon": -0.0858601,
      "tags": {
        "amenity": "pub",
        "name": "The Britannia"
      }
    },
    {
      "type": "node",
      "id": 592030782,
      "lat": 51.5094321,
      "lon": -0.084095,
      "tags": {
        "amenity": "restaurant",
        "cuisine": "indian",
        "name": "Rajasthan"
      }
    },
    {
      "type": "node",
      "id": 592642006,
      "lat": 51.510472,
      "lon": -0.0870841,
      "tags": {
        "addr:housenumber": "28",
        "addr:street": "King William Street",
        "amenity": "bar",
        "name": "Be At One Monument",
        "postal_code": "EC4R 9AT",
        "website": "http://www.dizzysbar.com"
      }
    },
    {
      "type": "node",
      "id": 592642007,
      "lat": 51.5109461,
      "lon": -0.0866818,
      "tags": {
        "amenity": "clock"
      }
    },
    {
      "type": "node",
      "id": 595709481,
      "lat": 51.51878,
      "lon": -0.1026986,
      "tags": {
        "addr:housenumber": "4",
        "amenity": "pub",
        "name": "Cock Tavern"
      }
    },
    {
      "type": "node",
      "id": 595709974,
      "lat": 51.5180475,
      "lon": -0.1048509,
      "tags": {
        "amenity": "parking",
        "name": "Snow Hill"
      }
    },
    {
      "type": "node",
      "id": 606768248,
      "lat": 51.5139899,
      "lon": -0.1028814,
      "tags": {
        "addr:city": "London",
        "addr:country": "GB",
        "addr:full": "57 Ludgate Hill, London, GB",
        "addr:housenumber": "57",
        "addr:postcode": "EC4V 6DR",
        "addr:street": "Ludgate Hill",
        "amenity": "cafe"
      }
    },
    {
      "type": "node",
      "id": 609782327,
      "lat": 51.5124652,
      "lon": -0.1039466,
      "tags": {
        "addr:housenumber": "31",
        "addr:street": "New Bridge Street",
        "amenity": "bank",
        "atm": "yes",
        "name": "NatWest"
      }
    },
    {
      "type": "node",
      "id": 609954947,
      "lat": 51.5125955,
      "lon": -0.104019,
      "tags": {
        "addr:city": "London",
        "addr:housename": "Offices, New Bridge Street House",
        "addr:housenumber": "30-34",
        "addr:postcode": "EC4V 6BJ",
        "addr:street": "New Bridge Street",
        "amenity": "cafe",
        "fhrs:authority": "City of London Corporation",
        "fhrs:id": "294124",
        "fhrs:local_authority_id": "PI/000009495",
        "name": "Starbucks Coffee",
        "source:addr": "FHRS Open Data"
      }
    },
    {
      "type": "node",
      "id": 609956569,
      "lat": 51.5139656,
      "lon": -0.1040765,
      "tags": {
        "addr:city": "London",
        "addr:housenumber": "1",
        "addr:postcode": "EC4M 7LW",
        "addr:street": "Ludgate Circus",
        "fhrs:id": "711648",
        "name": "The Cooperative Food",
        "shop": "convenience",
        "source:addr": "FHRS Open Data"
      }
    },
    {
      "type": "node",
      "id": 616343331,
      "lat": 51.5124315,
      "lon": -0.0988156,
      "tags": {
        "amenity": "restaurant",
        "cuisine": "japanese",
        "name": "Miyama"
      }
    },
    {
      "type": "node",
      "id": 622062081,
      "lat": 51.511254,
      "lon": -0.089658,
      "tags": {
        "addr:housenumber": "80",
        "addr:postcode": "EC4N 6HL",
        "addr:street": "Cannon Street",
        "addr:unit": "Retail Unit",
        "amenity": "pharmacy",
        "branch": "London Cannon Street",
        "contact:website": "http://www.boots.com/stores/1533-london-cannon-street-ec4n-6ae",
        "dispensing": "yes",
        "fhrs:authority": "City of London Corporation",
        "fhrs:id": "293712",
        "fhrs:local_authority_id": "PI/000002082",
        "name": "Boots",
        "operator": "Boots UK Limited",
        "phone": "+44 20 7623 4676",
        "ref": "1533",
        "shop": "chemist",
        "source:addr": "FHRS Open Data",
        "wheelchair": "yes"
      }
    },
    {
      "type": "node",
      "id": 622583637,
      "lat": 51.5163433,
      "lon": -0.082476,
      "tags": {
        "name": "Haircare",
        "shop": "hairdresser"
      }
    },
    {
      "type": "node",
      "id": 640163796,
      "lat": 51.5171828,
      "lon": -0.0970164,
      "tags": {
        "amenity": "cafe",
        "name": "Pret A Manger",
        "wheelchair": "yes"
      }
    },
    {
      "type": "node",
      "id": 643312445,
      "lat": 51.5178546,
      "lon": -0.1134709,
      "tags": {
        "addr:housenumber": "67",
        "addr:street": "Chancery Lane",
        "amenity": "cafe",
        "name": "Wendells"
      }
    },
    {
      "type": "node",
      "id": 650341168,
      "lat": 51.515752,
      "lon": -0.0796774,
      "tags": {
        "addr:city": "London",
        "addr:housenumber": "58",
        "addr:postcode": "EC3A 7BE",
        "addr:street": "Houndsditch",
        "amenity": "fast_food",
        "cuisine": "salad",
        "fhrs:authority": "City of London Corporation",
        "fhrs:id": "556190",
        "fhrs:local_authority_id": "PI/000024040",
        "name": "Tossed",
        "source:addr": "FHRS Open Data"
      }
    },
    {
      "type": "node",
      "id": 662260045,
      "lat": 51.518173,
      "lon": -0.08476,
      "tags": {
        "amenity": "cafe",
        "cuisine": "sandwich",
        "internet_access": "no",
        "level": "0",
        "name": "Pret A Manger",
        "operator": "Pret A Manger",
        "outdoor_seating": "no",
        "smoking": "no",
        "takeaway": "yes"
      }
    },
    {
      "type": "node",
      "id": 663673320,
      "lat": 51.5164236,
      "lon": -0.076966,
      "tags": {
        "amenity": "grit_bin"
      }
    },
    {
      "type": "node",
      "id": 664966147,
      "lat": 51.5185303,
      "lon": -0.083993,
      "tags": {
        "amenity": "fast_food",
        "cuisine": "sandwich",
        "level": "0",
        "name": "EAT",
        "operator": "EAT",
        "takeaway": "yes"
      }
    },
    {
      "type": "node",
      "id": 666475908,
      "lat": 51.5135167,
      "lon": -0.0938786,
      "tags": {
        "amenity": "bar",
        "name": "The Fine Line"
      }
    },
    {
      "type": "node",
      "id": 666475916,
      "lat": 51.5138693,
      "lon": -0.0935309,
      "tags": {
        "addr:city": "London",
        "addr:postcode": "EC2V 6AU",
        "addr:street": "Cheapside",
        "amenity": "cafe",
        "layer": "-1",
        "name": "Cafe Below"
      }
    },
    {
      "type": "node",
      "id": 666475917,
      "lat": 51.5142771,
      "lon": -0.0942797,
      "tags": {
        "addr:city": "City of London, London",
        "addr:housename": "Unit 3",
        "addr:housenumber": "120",
        "addr:postcode": "EC2V 6JB",
        "addr:street": "Cheapside",
        "amenity": "bank",
        "atm": "yes",
        "name": "Metro bank",
        "opening_hours": "Mo-Su 09:00-20:00; Su 09:00-18:00",
        "operator": "Metro Bank"
      }
    },
    {
      "type": "node",
      "id": 666475918,
      "lat": 51.5142992,
      "lon": -0.0944278,
      "tags": {
        "name": "Jaeger",
        "shop": "clothes"
      }
    },
    {
      "type": "node",
      "id": 666475919,
      "lat": 51.5143272,
      "lon": -0.0946145,
      "tags": {
        "name": "Ted Baker",
        "shop": "clothes"
      }
    },
    {
      "type": "node",
      "id": 666475921,
      "lat": 51.5144535,
      "lon": -0.0938096,
      "tags": {
        "addr:city": "London",
        "addr:housenumber": "8",
        "addr:postcode": "EC2V 8BL",
        "addr:street": "Russia Row",
        "amenity": "restaurant",
        "fhrs:authority": "City of London Corporation",
        "fhrs:id": "294537",
        "fhrs:local_authority_id": "PI/000015341",
        "name": "Pizza Express",
        "source:addr": "FHRS Open Data"
      }
    },
    {
      "type": "node",
      "id": 666475927,
      "lat": 51.5138481,
      "lon": -0.0931721,
      "tags": {
        "amenity": "cafe",
        "cuisine": "sandwich",
        "name": "Pure"
      }
    },
    {
      "type": "node",
      "id": 666749182,
      "lat": 51.510913,
      "lon": -0.074708,
      "tags": {
        "addr:housenumber": "64-73",
        "addr:postcode": "EC3N 1JL",
        "addr:street": "Minories",
        "amenity": "pub",
        "cuisine": "regional",
        "internet_access": "wlan",
        "name": "The Minories",
        "opening_hours": "Mo-Th 08:00-23:00; Fr 08:00-01:00; Sa-Su 08:00-23:00",
        "operator": "Stonegate Pub Company",
        "phone": "020 7702 1658",
        "toilets": "yes",
        "toilets:access": "customers",
        "website": "http://www.minories-london.co.uk/"
      }
    },
    {
      "type": "node",
      "id": 666749188,
      "lat": 51.5115013,
      "lon": -0.0751203,
      "tags": {
        "amenity": "cafe",
        "name": "Starbucks"
      }
    },
    {
      "type": "node",
      "id": 666749200,
      "lat": 51.5117122,
      "lon": -0.0754908,
      "tags": {
        "amenity": "cafe",
        "cuisine": "sandwich",
        "name": "EAT.",
        "wifi": "free"
      }
    },
    {
      "type": "node",
      "id": 666918630,
      "lat": 51.511876,
      "lon": -0.074605,
      "tags": {
        "addr:housenumber": "1",
        "addr:street": "Haydon Street",
        "leisure": "sports_centre",
        "name": "Virgin Active"
      }
    },
    {
      "type": "node",
      "id": 666918951,
      "lat": 51.5121747,
      "lon": -0.0757376,
      "tags": {
        "addr:housenumber": "130-135",
        "addr:street": "Minories",
        "amenity": "pub",
        "name": "The Chamberlain",
        "operator": "Fuller's",
        "postal_code": "EC3N 1NU",
        "toilets": "yes",
        "toilets:access": "customers",
        "website": "http://www.fullershotels.com/rte.asp?id=13"
      }
    },
    {
      "type": "node",
      "id": 666918952,
      "lat": 51.5118709,
      "lon": -0.0756786,
      "tags": {
        "addr:housenumber": "124-127",
        "addr:street": "Minories",
        "amenity": "bar",
        "name": "Dirty Martini Minories",
        "postal_code": "EC3N 1NT",
        "website": "http://www.maryjanesbar.com/"
      }
    },
    {
      "type": "node",
      "id": 666920103,
      "lat": 51.512367,
      "lon": -0.0754101,
      "tags": {
        "addr:housenumber": "30-33",
        "addr:street": "Minories",
        "amenity": "bar",
        "name": "Abbey",
        "phone": "020 7488 1918",
        "postal_code": "EC3N 1DD",
        "website": "http://www.abbey-bar.co.uk"
      }
    },
    {
      "type": "node",
      "id": 666920299,
      "lat": 51.5135927,
      "lon": -0.0761133,
      "tags": {
        "addr:city": "London",
        "addr:country": "GB",
        "addr:housenumber": "84",
        "addr:postcode": "EC3N 1LH",
        "addr:street": "Aldgate High Street",
        "amenity": "cafe",
        "fhrs:authority": "City of London Corporation",
        "fhrs:id": "294519",
        "fhrs:local_authority_id": "PI/000015177",
        "name": "EAT.",
        "website": "http://www.eat.co.uk/"
      }
    },
    {
      "type": "node",
      "id": 666920731,
      "lat": 51.513145,
      "lon": -0.075576,
      "tags": {
        "amenity": "restaurant",
        "name": "Sinh Le"
      }
    },
    {
      "type": "node",
      "id": 666920753,
      "lat": 51.513777,
      "lon": -0.0755619,
      "tags": {
        "amenity": "fast_food",
        "name": "Subway"
      }
    },
    {
      "type": "node",
      "id": 667454570,
      "lat": 51.510474,
      "lon": -0.074603,
      "tags": {
        "amenity": "cafe",
        "name": "Oasis"
      }
    },
    {
      "type": "node",
      "id": 668074037,
      "lat": 51.5115174,
      "lon": -0.0757073,
      "tags": {
        "addr:city": "London",
        "addr:country": "GB",
        "addr:housenumber": "3",
        "addr:postcode": "EC3N 2LR",
        "addr:street": "America Square",
        "amenity": "cafe",
        "cuisine": "sandwich",
        "name": "Pret A Manger",
        "website": "http://www.pret.com/"
      }
    },
    {
      "type": "node",
      "id": 668074193,
      "lat": 51.5115315,
      "lon": -0.0754346,
      "tags": {
        "amenity": "restaurant",
        "name": "Jamies"
      }
    },
    {
      "type": "node",
      "id": 668806548,
      "lat": 51.5135654,
      "lon": -0.0762155,
      "tags": {
        "addr:city": "London",
        "addr:country": "GB",
        "addr:housenumber": "85",
        "addr:postcode": "EC3N 1LH",
        "addr:street": "Aldgate High Street",
        "amenity": "cafe",
        "cuisine": "sandwich",
        "fhrs:authority": "City of London Corporation",
        "fhrs:id": "294929",
        "fhrs:local_authority_id": "PI/000019254",
        "name": "Pret A Manger",
        "website": "http://www.pret.com/"
      }
    },
    {
      "type": "node",
      "id": 668820028,
      "lat": 51.512073,
      "lon": -0.079772,
      "tags": {
        "addr:city": "London",
        "addr:housenumber": "59",
        "addr:postcode": "EC3M 4AD",
        "addr:street": "Fenchurch Street",
        "amenity": "cafe",
        "fhrs:authority": "City of London Corporation",
        "fhrs:id": "293875",
        "fhrs:local_authority_id": "PI/000005502",
        "name": "Pret A Manger",
        "source:addr": "FHRS Open Data"
      }
    },
    {
      "type": "node",
      "id": 668820569,
      "lat": 51.511976,
      "lon": -0.079927,
      "tags": {
        "addr:city": "London",
        "addr:housenumber": "22",
        "addr:postcode": "EC3R 7JP",
        "addr:street": "London Street",
        "amenity": "cafe",
        "fhrs:authority": "City of London Corporation",
        "fhrs:id": "294394",
        "fhrs:local_authority_id": "PI/000013790",
        "name": "Caffè Nero",
        "source:addr": "FHRS Open Data"
      }
    },
    {
      "type": "node",
      "id": 668834653,
      "lat": 51.5114748,
      "lon": -0.0818917,
      "tags": {
        "name": "Next",
        "opening_hours": "Mo-Fr 08:00-19:00;Sa-Su off",
        "phone": "‎+44 844 844 5484",
        "shop": "clothes",
        "website": "www.next.co.uk",
        "wheelchair": "yes"
      }
    },
    {
      "type": "node",
      "id": 668842083,
      "lat": 51.5122258,
      "lon": -0.0793038,
      "tags": {
        "addr:city": "London",
        "addr:housenumber": "65",
        "addr:postcode": "EC3M 4BE",
        "addr:street": "Fenchurch Street",
        "amenity": "cafe",
        "fhrs:authority": "City of London Corporation",
        "fhrs:id": "294751",
        "fhrs:local_authority_id": "PI/000017329",
        "name": "EAT.",
        "source:addr": "FHRS Open Data"
      }
    },
    {
      "type": "node",
      "id": 668842428,
      "lat": 51.512553,
      "lon": -0.079109,
      "tags": {
        "amenity": "cafe",
        "name": "Costa"
      }
    },
    {
      "type": "node",
      "id": 668842793,
      "lat": 51.512664,
      "lon": -0.078879,
      "tags": {
        "addr:housenumber": "106",
        "leisure": "sports_centre",
        "name": "Fitness First"
      }
    },
    {
      "type": "node",
      "id": 670101887,
      "lat": 51.5147054,
      "lon": -0.0810101,
      "tags": {
        "amenity": "cafe",
        "cuisine": "sushi",
        "name": "Itsu"
      }
    },
    {
      "type": "node",
      "id": 674954061,
      "lat": 51.5112939,
      "lon": -0.0772692,
      "tags": {
        "addr:housename": "The Arches",
        "addr:housenumber": "9",
        "addr:street": "Crutched Friars",
        "amenity": "pub",
        "name": "Bavarian Beerhouse",
        "outdoor_seating": "no",
        "postal_code": "EC3N 2AU",
        "toilets": "yes",
        "toilets:access": "customers",
        "website": "http://www.bavarian-beerhouse.com"
      }
    },
    {
      "type": "node",
      "id": 674956578,
      "lat": 51.5113348,
      "lon": -0.0775963,
      "tags": {
        "addr:street": "Crutched Friars",
        "name": "Ladbrokes",
        "shop": "bookmaker"
      }
    },
    {
      "type": "node",
      "id": 675734348,
      "lat": 51.5113439,
      "lon": -0.0776892,
      "tags": {
        "addr:city": "London",
        "addr:country": "GB",
        "amenity": "motorcycle_parking",
        "name": "Motorcycle parking"
      }
    },
    {
      "type": "node",
      "id": 675734360,
      "lat": 51.5121008,
      "lon": -0.0756938,
      "tags": {
        "addr:housenumber": "130-135",
        "addr:street": "Minories",
        "name": "The Chamberlain",
        "operator": "Fuller's",
        "tourism": "hotel",
        "website": "http://www.fullershotels.com/rte.asp?id=13"
      }
    },
    {
      "type": "node",
      "id": 675734371,
      "lat": 51.5117445,
      "lon": -0.0774102,
      "tags": {
        "addr:housenumber": "5",
        "addr:street": "Lloyd's Avenue",
        "amenity": "cafe",
        "name": "pod",
        "phone": "020 3174 0038",
        "postal_code": "EC3N 3AE",
        "website": "http://www.podfood.co.uk/findapod_LoydsAve.php"
      }
    },
    {
      "type": "node",
      "id": 685996805,
      "lat": 51.519021,
      "lon": -0.0874706,
      "tags": {
        "amenity": "bank",
        "name": "Barclays",
        "operator": "Barclays Bank PLC"
      }
    },
    {
      "type": "node",
      "id": 687648330,
      "lat": 51.510842,
      "lon": -0.075196,
      "tags": {
        "name": "Food&Wine",
        "shop": "convenience"
      }
    },
    {
      "type": "node",
      "id": 687648578,
      "lat": 51.5116672,
      "lon": -0.0751904,
      "tags": {
        "amenity": "restaurant",
        "name": "Lazio"
      }
    },
    {
      "type": "node",
      "id": 688688992,
      "lat": 51.509757,
      "lon": -0.078376,
      "tags": {
        "amenity": "restaurant",
        "name": "Chez Gerard"
      }
    },
    {
      "type": "node",
      "id": 689097130,
      "lat": 51.5084656,
      "lon": -0.0792217,
      "tags": {
        "amenity": "cafe",
        "name": "Starbucks"
      }
    },
    {
      "type": "node",
      "id": 690275859,
      "lat": 51.5121948,
      "lon": -0.0753621,
      "tags": {
        "addr:housename": "St Clare House",
        "addr:housenumber": "30-33",
        "addr:postcode": "EC3N 1DD",
        "addr:street": "Minories",
        "amenity": "restaurant",
        "cuisine": "japanese",
        "name": "Japanese Canteen"
      }
    },
    {
      "type": "node",
      "id": 691387452,
      "lat": 51.509738,
      "lon": -0.079427,
      "tags": {
        "addr:city": "London",
        "addr:country": "GB",
        "addr:housenumber": "12",
        "addr:postcode": "EC3R 5AS",
        "addr:street": "Byward Street",
        "amenity": "cafe",
        "cuisine": "sandwich",
        "name": "Pret A Manger",
        "website": "http://www.pret.com/"
      }
    },
    {
      "type": "node",
      "id": 692162470,
      "lat": 51.5120421,
      "lon": -0.0852577,
      "tags": {
        "name": "New Look",
        "opening_hours": "Mo-Fr 07:30-20:00",
        "shop": "clothes"
      }
    },
    {
      "type": "node",
      "id": 692162483,
      "lat": 51.5121301,
      "lon": -0.0851628,
      "tags": {
        "amenity": "fast_food",
        "name": "Itsu"
      }
    },
    {
      "type": "node",
      "id": 692162487,
      "lat": 51.5124676,
      "lon": -0.0845697,
      "tags": {
        "name": "Savoy Tailor's Guild",
        "shop": "clothes"
      }
    },
    {
      "type": "node",
      "id": 692162500,
      "lat": 51.5127258,
      "lon": -0.0852031,
      "tags": {
        "amenity": "restaurant",
        "cuisine": "steak_house",
        "name": "Gaucho"
      }
    },
    {
      "type": "node",
      "id": 692162503,
      "lat": 51.5125242,
      "lon": -0.0848775,
      "tags": {
        "name": "Gap",
        "shop": "clothes"
      }
    },
    {
      "type": "node",
      "id": 692162507,
      "lat": 51.5127056,
      "lon": -0.0849374,
      "tags": {
        "addr:city": "London",
        "addr:postcode": "EC3V 0DR",
        "addr:street": "Gracechurch Street",
        "name": "Club Quarters",
        "phone": "0207 666 1620",
        "tourism": "hotel",
        "url": "www.clubquarters.com/loc_londonGracechurch.php"
      }
    },
    {
      "type": "node",
      "id": 692162524,
      "lat": 51.5124628,
      "lon": -0.0832116,
      "tags": {
        "addr:housenumber": "30",
        "amenity": "restaurant",
        "name": "We Grill"
      }
    },
    {
      "type": "node",
      "id": 692162534,
      "lat": 51.5126585,
      "lon": -0.0833025,
      "tags": {
        "amenity": "restaurant",
        "name": "La Tasca"
      }
    },
    {
      "type": "node",
      "id": 692162535,
      "lat": 51.5127691,
      "lon": -0.0834132,
      "tags": {
        "amenity": "pub",
        "name": "Lamb Tavern",
        "toilets": "yes",
        "toilets:access": "customers"
      }
    },
    {
      "type": "node",
      "id": 692162537,
      "lat": 51.5126834,
      "lon": -0.0834307,
      "tags": {
        "name": "Reiss",
        "shop": "clothes"
      }
    },
    {
      "type": "node",
      "id": 692162540,
      "lat": 51.5125856,
      "lon": -0.0830699,
      "tags": {
        "addr:housenumber": "32",
        "name": "Beau Gems",
        "shop": "jewelry"
      }
    },
    {
      "type": "node",
      "id": 692162550,
      "lat": 51.5127356,
      "lon": -0.0833287,
      "tags": {
        "addr:housenumber": "13",
        "amenity": "restaurant",
        "name": "Osteria del Mercato"
      }
    },
    {
      "type": "node",
      "id": 692162553,
      "lat": 51.5126998,
      "lon": -0.0832375,
      "tags": {
        "addr:housenumber": "14",
        "name": "Cards Galore",
        "shop": "cards"
      }
    },
    {
      "type": "node",
      "id": 692162564,
      "lat": 51.5129756,
      "lon": -0.0832909,
      "tags": {
        "name": "Waterstones",
        "shop": "books"
      }
    },
    {
      "type": "node",
      "id": 692162566,
      "lat": 51.5130683,
      "lon": -0.0832589,
      "tags": {
        "name": "HMV - now closed",
        "shop": "music"
      }
    },
    {
      "type": "node",
      "id": 692162569,
      "lat": 51.5131209,
      "lon": -0.083483,
      "tags": {
        "name": "T-Mobile",
        "shop": "mobile_phone"
      }
    },
    {
      "type": "node",
      "id": 692162580,
      "lat": 51.5132189,
      "lon": -0.0834724,
      "tags": {
        "name": "Oasis",
        "shop": "clothes"
      }
    },
    {
      "type": "node",
      "id": 692162587,
      "lat": 51.5135099,
      "lon": -0.0832315,
      "tags": {
        "amenity": "bar",
        "name": "Steam and Rye"
      }
    },
    {
      "type": "node",
      "id": 692162590,
      "lat": 51.5135384,
      "lon": -0.0828514,
      "tags": {
        "addr:housenumber": "140",
        "amenity": "bar",
        "name": "Revolution"
      }
    },
    {
      "type": "node",
      "id": 694158855,
      "lat": 51.5118514,
      "lon": -0.0762537,
      "tags": {
        "amenity": "bar",
        "name": "The Emperor"
      }
    },
    {
      "type": "node",
      "id": 694159622,
      "lat": 51.5117014,
      "lon": -0.0757505,
      "tags": {
        "amenity": "restaurant",
        "name": "Missouri Angel"
      }
    },
    {
      "type": "node",
      "id": 694469672,
      "lat": 51.5116888,
      "lon": -0.0759764,
      "tags": {
        "amenity": "doctors",
        "name": "City Of London Medical Centre"
      }
    },
    {
      "type": "node",
      "id": 694471389,
      "lat": 51.511247,
      "lon": -0.076255,
      "tags": {
        "leisure": "sports_centre",
        "name": "Fitness First"
      }
    },
    {
      "type": "node",
      "id": 694471966,
      "lat": 51.5116636,
      "lon": -0.0767166,
      "tags": {
        "addr:housenumber": "9",
        "addr:postcode": "EC3N 2JY",
        "addr:street": "Crosswall",
        "amenity": "bar",
        "name": "Charlie's"
      }
    },
    {
      "type": "node",
      "id": 694473687,
      "lat": 51.511228,
      "lon": -0.077017,
      "tags": {
        "amenity": "cafe",
        "name": "Camden Food Co"
      }
    },
    {
      "type": "node",
      "id": 694474726,
      "lat": 51.510773,
      "lon": -0.076834,
      "tags": {
        "amenity": "bar",
        "name": "Isis"
      }
    },
    {
      "type": "node",
      "id": 694475188,
      "lat": 51.510634,
      "lon": -0.077099,
      "tags": {
        "amenity": "restaurant",
        "name": "Keepers"
      }
    },
    {
      "type": "node",
      "id": 694509826,
      "lat": 51.509724,
      "lon": -0.079885,
      "tags": {
        "amenity": "cafe",
        "name": "Caffè del Gusto"
      }
    },
    {
      "type": "node",
      "id": 694510208,
      "lat": 51.5088796,
      "lon": -0.0789428,
      "tags": {
        "amenity": "restaurant",
        "name": "Wagamama"
      }
    },
    {
      "type": "node",
      "id": 694510269,
      "lat": 51.5089063,
      "lon": -0.0790823,
      "tags": {
        "amenity": "restaurant",
        "name": "GBK"
      }
    },
    {
      "type": "node",
      "id": 694824545,
      "lat": 51.5085291,
      "lon": -0.079136,
      "tags": {
        "amenity": "cafe",
        "name": "Subway"
      }
    },
    {
      "type": "node",
      "id": 694824549,
      "lat": 51.5086158,
      "lon": -0.0790608,
      "tags": {
        "amenity": "cafe",
        "name": "Ben & Jerry's"
      }
    },
    {
      "type": "node",
      "id": 696913693,
      "lat": 51.51122,
      "lon": -0.0776408,
      "tags": {
        "addr:housenumber": "26A",
        "addr:postcode": "EC3N 2AR",
        "addr:street": "Savage Gardens",
        "amenity": "restaurant",
        "cuisine": "fish",
        "name": "Orpheus",
        "phone": "02074811931"
      }
    },
    {
      "type": "node",
      "id": 696927640,
      "lat": 51.51072,
      "lon": -0.080403,
      "tags": {
        "amenity": "restaurant",
        "name": "China Delight"
      }
    },
    {
      "type": "node",
      "id": 696931374,
      "lat": 51.510033,
      "lon": -0.079363,
      "tags": {
        "amenity": "pub",
        "name": "Draft House Seething",
        "website": "http://www.drafthouse.co.uk/"
      }
    },
    {
      "type": "node",
      "id": 697037338,
      "lat": 51.5099578,
      "lon": -0.0756371,
      "tags": {
        "leisure": "playground"
      }
    },
    {
      "type": "node",
      "id": 701292868,
      "lat": 51.513351,
      "lon": -0.073876,
      "tags": {
        "amenity": "doctors",
        "name": "Portsoken Health Centre"
      }
    },
    {
      "type": "node",
      "id": 702735037,
      "lat": 51.511096,
      "lon": -0.087252,
      "tags": {
        "addr:city": "London",
        "addr:housenumber": "18",
        "addr:postcode": "EC4N 7BP",
        "addr:street": "King William Street",
        "amenity": "bank",
        "name": "Santander Totta",
        "opening_hours": "Mo-Fr 09:30-16:00",
        "phone": "‎+44 20 7929 2225"
      }
    },
    {
      "type": "node",
      "id": 702768598,
      "lat": 51.511348,
      "lon": -0.088611,
      "tags": {
        "addr:city": "London",
        "addr:housenumber": "123",
        "addr:postcode": "EC4N 5AX",
        "addr:street": "Cannon Street",
        "amenity": "cafe",
        "cuisine": "sandwich",
        "name": "EAT.",
        "outdoor_seating": "no",
        "phone": "‎+44 20 7636 8309",
        "takeaway": "yes",
        "website": "http://www.eat.co.uk",
        "wheelchair": "no"
      }
    },
    {
      "type": "node",
      "id": 702769377,
      "lat": 51.511328,
      "lon": -0.088512,
      "tags": {
        "amenity": "fast_food",
        "cuisine": "sandwich",
        "name": "Subway",
        "outdoor_seating": "no",
        "takeaway": "yes",
        "wheelchair": "yes"
      }
    },
    {
      "type": "node",
      "id": 702773347,
      "lat": 51.511572,
      "lon": -0.089838,
      "tags": {
        "amenity": "pub",
        "name": "Cannick Tapps"
      }
    },
    {
      "type": "node",
      "id": 702796635,
      "lat": 51.512573,
      "lon": -0.090096,
      "tags": {
        "amenity": "cafe",
        "name": "Starbucks",
        "opening_hours": "Mo-Fr 06:00-19:00",
        "phone": "020 7626 1391",
        "postcode": "EC4N 8DQ"
      }
    },
    {
      "type": "node",
      "id": 702806732,
      "lat": 51.5098068,
      "lon": -0.0867617,
      "tags": {
        "amenity": "cafe",
        "name": "Pret A Manger",
        "opening_hours": "Mo-Fr 06:30-19:30; Sa-Su 09:00-17:00"
      }
    },
    {
      "type": "node",
      "id": 707299370,
      "lat": 51.511051,
      "lon": -0.07561,
      "tags": {
        "amenity": "cafe",
        "name": "De Vine"
      }
    },
    {
      "type": "node",
      "id": 707301027,
      "lat": 51.510873,
      "lon": -0.075507,
      "tags": {
        "amenity": "cafe",
        "name": "Hot Spot"
      }
    },
    {
      "type": "node",
      "id": 707377168,
      "lat": 51.5137604,
      "lon": -0.0756409,
      "tags": {
        "name": "Ladbrokes",
        "shop": "bookmaker"
      }
    },
    {
      "type": "node",
      "id": 707377198,
      "lat": 51.5121056,
      "lon": -0.0791858,
      "tags": {
        "addr:city": "London",
        "addr:housenumber": "3",
        "addr:postcode": "EC3M 4AJ",
        "addr:street": "Fenchurch Place",
        "amenity": "restaurant",
        "fhrs:authority": "City of London Corporation",
        "fhrs:id": "294730",
        "fhrs:local_authority_id": "PI/000017245",
        "name": "Cafe Brera",
        "phone": "+44 20 7481 1183",
        "source:addr:postcode": "FHRS Open Data",
        "website": "http://www.cafebrera.com"
      }
    },
    {
      "type": "node",
      "id": 708866091,
      "lat": 51.5125635,
      "lon": -0.0836537,
      "tags": {
        "amenity": "restaurant",
        "cuisine": "japanese",
        "name": "Chamberlain's"
      }
    },
    {
      "type": "node",
      "id": 708866092,
      "lat": 51.5152475,
      "lon": -0.0799419,
      "tags": {
        "amenity": "cafe",
        "name": "Caffè Nero"
      }
    },
    {
      "type": "node",
      "id": 710474270,
      "lat": 51.512194,
      "lon": -0.0839214,
      "tags": {
        "amenity": "restaurant",
        "name": "Giorgio"
      }
    },
    {
      "type": "node",
      "id": 710527432,
      "lat": 51.5106631,
      "lon": -0.0763715,
      "tags": {
        "amenity": "cafe"
      }
    },
    {
      "type": "node",
      "id": 710656926,
      "lat": 51.5187168,
      "lon": -0.1009564,
      "tags": {
        "amenity": "parking",
        "level": "-1",
        "name": "Smithfield Car Park"
      }
    },
    {
      "type": "node",
      "id": 725258685,
      "lat": 51.5134999,
      "lon": -0.0889996,
      "tags": {
        "artwork_type": "sculpture",
        "name": "Cosmos",
        "operator": "elephant_parade",
        "ref": "106",
        "source": "http://www.flickr.com/photos/mywanderlust/4582089455",
        "tourism": "artwork",
        "url": "http://www.elephantparadelondon.org"
      }
    },
    {
      "type": "node",
      "id": 725258700,
      "lat": 51.5134786,
      "lon": -0.088904,
      "tags": {
        "artwork_type": "sculpture",
        "name": "Elephant Race Against Time",
        "operator": "elephant_parade",
        "ref": "74",
        "source": "http://www.flickr.com/photos/mywanderlust/4582718368",
        "tourism": "artwork",
        "url": "http://www.elephantparadelondon.org"
      }
    },
    {
      "type": "node",
      "id": 734468159,
      "lat": 51.5082177,
      "lon": -0.0803107,
      "tags": {
        "amenity": "bar",
        "name": "Sugar Quay"
      }
    },
    {
      "type": "node",
      "id": 739967562,
      "lat": 51.5094976,
      "lon": -0.0842112,
      "tags": {
        "addr:housenumber": "45",
        "addr:postcode": "EC3R 8BU",
        "addr:street": "Monument Street",
        "amenity": "pub",
        "name": "The Walrus & The Carpenter",
        "website": "www.nicholsonspubs.co.uk/thewalrusandthecarpentermonumentlondon"
      }
    },
    {
      "type": "node",
      "id": 748067171,
      "lat": 51.513147,
      "lon": -0.0992559,
      "tags": {
        "amenity": "restaurant",
        "cuisine": "french",
        "name": "Cafe Rouge"
      }
    },
    {
      "type": "node",
      "id": 748067842,
      "lat": 51.5131661,
      "lon": -0.0994135,
      "tags": {
        "amenity": "restaurant",
        "cuisine": "burger",
        "internet_access": "wlan",
        "name": "Gourmet Burger Kitchen",
        "website": "http://gbk.co.uk"
      }
    },
    {
      "type": "node",
      "id": 748068625,
      "lat": 51.5132501,
      "lon": -0.0997741,
      "tags": {
        "amenity": "restaurant",
        "name": "Pizza Express"
      }
    },
    {
      "type": "node",
      "id": 748069031,
      "lat": 51.513199,
      "lon": -0.0995733,
      "tags": {
        "amenity": "cafe",
        "name": "Apostrophe",
        "wheelchair": "yes"
      }
    },
    {
      "type": "node",
      "id": 748072092,
      "lat": 51.5143484,
      "lon": -0.1004216,
      "tags": {
        "artist_name": "Thomas Heatherwick",
        "name": "Angel's Wings",
        "source": "bing;note#69575;http://commons.wikimedia.org/wiki/File:Angel%27s_Wings_Thomas_Heatherwick.jpg",
        "tourism": "artwork"
      }
    },
    {
      "type": "node",
      "id": 748073444,
      "lat": 51.5137435,
      "lon": -0.1014909,
      "tags": {
        "addr:city": "London",
        "addr:housenumber": "23",
        "addr:postcode": "EC4M 7AE",
        "addr:street": "Ludgate Hill",
        "fhrs:id": "294072",
        "name": "William Hill",
        "shop": "bookmaker",
        "source:addr": "Food Hygiene Rating Scheme open data"
      }
    },
    {
      "type": "node",
      "id": 748073737,
      "lat": 51.5137785,
      "lon": -0.1016151,
      "tags": {
        "amenity": "cafe",
        "name": "EAT."
      }
    },
    {
      "type": "node",
      "id": 748074039,
      "lat": 51.5137364,
      "lon": -0.1018968,
      "tags": {
        "amenity": "bank",
        "name": "TSB"
      }
    },
    {
      "type": "node",
      "id": 748076792,
      "lat": 51.5138644,
      "lon": -0.1010988,
      "tags": {
        "amenity": "restaurant",
        "name": "Côte Brasserie"
      }
    },
    {
      "type": "node",
      "id": 748079263,
      "lat": 51.5138715,
      "lon": -0.101207,
      "tags": {
        "name": "Sta Travel",
        "shop": "travel_agency"
      }
    },
    {
      "type": "node",
      "id": 748087934,
      "lat": 51.5138595,
      "lon": -0.1021638,
      "tags": {
        "name": "Portlands",
        "shop": "convenience"
      }
    },
    {
      "type": "node",
      "id": 748091223,
      "lat": 51.5138854,
      "lon": -0.1023801,
      "tags": {
        "amenity": "fast_food",
        "name": "Greggs",
        "shop": "clothes"
      }
    },
    {
      "type": "node",
      "id": 748093715,
      "lat": 51.5141813,
      "lon": -0.1023124,
      "tags": {
        "amenity": "cafe",
        "name": "pod"
      }
    },
    {
      "type": "node",
      "id": 748111107,
      "lat": 51.513965,
      "lon": -0.103215,
      "tags": {
        "addr:housenumber": "59",
        "addr:street": "Ludgate Hill",
        "name": "TM Lewin",
        "shop": "clothes"
      }
    },
    {
      "type": "node",
      "id": 748115552,
      "lat": 51.5139636,
      "lon": -0.1036904,
      "tags": {
        "name": "Scotts",
        "shop": "dry_cleaning"
      }
    },
    {
      "type": "node",
      "id": 751837707,
      "lat": 51.5128943,
      "lon": -0.1094514,
      "tags": {
        "amenity": "pub",
        "name": "Pegasus",
        "toilets": "yes",
        "toilets:access": "customers",
        "wheelchair": "yes"
      }
    },
    {
      "type": "node",
      "id": 758770187,
      "lat": 51.5147056,
      "lon": -0.1092953,
      "tags": {
        "amenity": "restaurant",
        "cuisine": "indian",
        "level": "-1",
        "name": "Temple Bar",
        "phone": "020 7353 3819"
      }
    },
    {
      "type": "node",
      "id": 759123827,
      "lat": 51.5147486,
      "lon": -0.1085095,
      "tags": {
        "amenity": "fountain"
      }
    },
    {
      "type": "node",
      "id": 761831040,
      "lat": 51.5130063,
      "lon": -0.1081227,
      "tags": {
        "amenity": "parking",
        "name": "Bouverie Street Car Park",
        "operator": "Mid-Park",
        "ref": "2858",
        "staffed": "yes"
      }
    },
    {
      "type": "node",
      "id": 766467563,
      "lat": 51.5132123,
      "lon": -0.1013159,
      "tags": {
        "addr:city": "London",
        "addr:housenumber": "42-44",
        "addr:postcode": "EC4V 5EA",
        "addr:street": "Carter Lane",
        "fhrs:id": "294475",
        "name": "St. Paul's Tobacco",
        "shop": "convenience",
        "source:addr": "Food Hygiene Rating Scheme open data"
      }
    },
    {
      "type": "node",
      "id": 775219539,
      "lat": 51.513268,
      "lon": -0.075628,
      "tags": {
        "shop": "newsagent"
      }
    },
    {
      "type": "node",
      "id": 795788290,
      "lat": 51.5105583,
      "lon": -0.0793762,
      "tags": {
        "addr:city": "London",
        "addr:country": "GB",
        "addr:housenumber": "1",
        "addr:postcode": "EC3N 4AX",
        "addr:street": "Seething Lane",
        "email": "london.reservations@apexhotels.co.uk",
        "name": "Apex City of London",
        "phone": "+44 20 7702 2020",
        "tourism": "hotel",
        "website": "http://www.apexhotels.co.uk/hotels/city-of-london/"
      }
    },
    {
      "type": "node",
      "id": 796482320,
      "lat": 51.5137032,
      "lon": -0.0858011,
      "tags": {
        "amenity": "pub",
        "name": "Cock and Woolpack"
      }
    },
    {
      "type": "node",
      "id": 796777946,
      "lat": 51.5104975,
      "lon": -0.0793674,
      "tags": {
        "amenity": "restaurant",
        "name": "Addendum"
      }
    },